"","X","police_call_crime","police_call_address_display","police_call_date","block","street","address","longitude","latitude","Major","Minor"
"1",1,"Aggravated assault","200  Hoefler St","12/31/2016",200,"HOEFLER ST","200  HOEFLER ST ",-76.1796829620794,43.0363944879319,0.726507095717696,0.273492904282304
"3",3,"Burglary","100  Colby Av","12/31/2016",100,"COLBY AVE","100  COLBY AV ",-76.1029713619944,43.0709385209468,0.517097355880363,0.482902644119637
"6",6,"Aggravated assault","100  Wood Av","12/30/2016",100,"WOOD AVE","100  WOOD AV ",-76.1455627801724,43.0261215642639,0.56777264668792,0.43222735331208
"10",10,"Burglary","100  Rosewood St","12/30/2016",100,"ROSEWOOD ST","100  ROSEWOOD ST ",-76.1425582247172,43.0588969912066,0.911029289724601,0.0889707102753986
"15",15,"Larceny","100  Herkimer St","12/30/2016",100,"HERKIMER ST","100  HERKIMER ST ",-76.1886000217457,43.0546666638086,0.615328564627682,0.384671435372318
"21",22,"Aggravated assault","100  Palmer Av","12/29/2016",100,"PALMER AVE","100  PALMER AV ",-76.162687632482,43.0356249662506,0.718680249051025,0.281319750948975
"31",33,"Larceny","400  Village Dr","12/28/2016",400,"VILLAGE DR","400  VILLAGE DR ",-76.1170653797767,43.0706563162951,0.569373408318938,0.430626591681062
"33",35,"Vehicle theft","100  Ferris Av","12/28/2016",100,"FERRIS AVE","100  FERRIS AV ",-76.1071747113675,43.0456622223055,0.911029289724601,0.0889707102753986
"35",37,"Aggravated assault","100  Elmwood Av","12/27/2016",100,"ELMWOOD AVE","100  ELMWOOD AV ",-76.1614565245154,43.0187268081398,0.573336364394796,0.426663635605204
"38",40,"Burglary","100  Steuben St","12/27/2016",100,"STEUBEN ST","100  STEUBEN ST ",-76.1519742466533,43.0653040272821,0.828948066006586,0.171051933993414
"40",42,"Burglary","500  Richmond Av","12/27/2016",500,"RICHMOND AVE","500  RICHMOND AV ",-76.1746165616025,43.0502492662197,0.680004116153643,0.319995883846357
"44",46,"Larceny","200  Markland Av","12/27/2016",200,"MARKLAND AVE","200  MARKLAND AV ",-76.1796006394283,43.0317126983362,0.729939517536,0.270060482464
"45",47,"Larceny","200  Village Dr","12/27/2016",200,"VILLAGE DR","200  VILLAGE DR ",-76.1179595191027,43.0720461962832,0.569373408318938,0.430626591681062
"49",51,"Vehicle theft","300  Coolidge Av","12/27/2016",300,"COOLIDGE AVE","300  COOLIDGE AV ",-76.1634841142688,43.0316539292214,0.808263323538559,0.191736676461441
"53",55,"Burglary","100  Hixson Av","12/26/2016",100,"HIXSON AVE","100  HIXSON AV ",-76.1216258693846,43.0655263021847,0.721272154998655,0.278727845001345
"62",65,"Aggravated assault","200  Furman St","12/25/2016",200,"FURMAN ST","200  FURMAN ST ",-76.148279174954,43.0318349473845,0.571268381408417,0.428731618591583
"72",76,"Burglary","100  Milnor Av","12/23/2016",100,"MILNOR AVE","100  MILNOR AV ",-76.1035719788117,43.0473415427531,0.65412402141125,0.34587597858875
"74",78,"Burglary","600  Jamesville Av","12/23/2016",600,"JAMESVILLE AVE","600  JAMESVILLE AV ",-76.1320604790157,43.0203779594284,0.538451924421171,0.461548075578829
"81",85,"Larceny","100  Ballantyne Rd","12/23/2016",100,"BALLANTYNE RD","100  BALLANTYNE RD ",-76.1421660170882,43.0107095503917,0.505925085049764,0.494074914950236
"83",87,"Larceny","400  Broad St","12/23/2016",400,"BROAD ST","400  BROAD ST ",-76.1211828198231,43.0302871007028,0.612851260024796,0.387148739975204
"87",91,"Aggravated assault","100  Washington Sq","12/22/2016",100,"WASHINGTON SQ","100  WASHINGTON SQ ",-76.1621260903085,43.0700964232667,0.641136249942985,0.358863750057015
"91",95,"Larceny","100  Roney Rd","12/22/2016",100,"RONEY RD","100  RONEY RD ",-76.1428438677361,43.0025014271584,0.503691763310277,0.496308236689723
"93",97,"Larceny","100  Wood Av","12/22/2016",100,"WOOD AVE","100  WOOD AV ",-76.1455627801724,43.0261215642639,0.56777264668792,0.43222735331208
"94",98,"Larceny","1800  Teall Av","12/22/2016",1800,"TEALL AVE","1800  TEALL AV ",-76.1231552458591,43.0722097488932,0.532885384240931,0.467114615759069
"116",120,"Larceny","100  Genesee Park Dr","12/19/2016",100,"GENESEE PARK DR","100  GENESEE PARK DR ",-76.1095946622769,43.05068083549,0.622901625624658,0.377098374375342
"117",121,"Larceny","100  W  Brighton Av","12/19/2016",100,"W BRIGHTON AVE","100  W  BRIGHTON AV ",-76.1429958522506,43.0206917322399,0.568288962307457,0.431711037692543
"122",126,"Vehicle theft","300  Carbon St","12/19/2016",300,"CARBON ST","300  CARBON ST ",-76.1463798267946,43.0652704437549,0.571158049073187,0.428841950926813
"125",129,"Larceny","200  Grumbach Av","12/18/2016",200,"GRUMBACH AVE","200  GRUMBACH AV ",-76.1395941612484,43.0641461669292,0.59709094229114,0.40290905770886
"143",148,"Aggravated assault","500  S  Beech St","12/15/2016",500,"S BEECH ST","500  S  BEECH ST ",-76.1254428619336,43.0453350636075,0.502468280199766,0.497531719800234
"149",155,"Larceny","500  Grant Av","12/15/2016",500,"GRANT AVE","500  GRANT AV ",-76.1783890188978,43.0317543838375,0.737137792146,0.262862207854
"152",159,"Larceny","100  Holden St","12/14/2016",100,"HOLDEN ST","100  HOLDEN ST ",-76.1810416362583,43.0384333921561,0.561486899885952,0.438513100114048
"159",166,"Burglary","100  Fernwood Av","12/13/2016",100,"FERNWOOD AVE","100  FERNWOOD AV ",-76.1468023484292,43.0231094045338,0.551359759688409,0.448640240311591
"161",168,"Larceny","100  Melrose Av","12/13/2016",100,"MELROSE AVE","100  MELROSE AV ",-76.1226495026488,43.06426328911,0.573686540809643,0.426313459190357
"162",169,"Larceny","300  Jamesville Av","12/13/2016",300,"JAMESVILLE AVE","300  JAMESVILLE AV ",-76.1354122416745,43.0241434822843,0.538451924421171,0.461548075578829
"165",173,"Burglary","100  Randall Av","12/12/2016",100,"RANDALL AVE","100  RANDALL AV ",-76.1569049536822,43.0231477921087,0.591717753763221,0.408282246236779
"166",174,"Burglary","700  Ivy Ridge Rd","12/12/2016",700,"IVY RIDGE RD","700  IVY RIDGE RD ",-76.13478268712,43.0182248348227,0.511999755866786,0.488000244133214
"176",185,"Robbery","200  Herkimer St","12/12/2016",200,"HERKIMER ST","200  HERKIMER ST ",-76.1897421637917,43.0542272879894,0.615328564627682,0.384671435372318
"183",192,"Larceny","400  Ivy Ridge Rd","12/11/2016",400,"IVY RIDGE RD","400  IVY RIDGE RD ",-76.13478268712,43.0182248348227,0.511999755866786,0.488000244133214
"187",196,"Burglary","100  Forest Av","12/10/2016",100,"FOREST AVE","100  FOREST AV ",-76.1464303660779,43.0212959388662,0.64030279663502,0.35969720336498
"191",200,"Larceny","100  W  Beard Av","12/10/2016",100,"W BEARD AVE","100  W  BEARD AV ",-76.1459872348277,43.0270132294957,0.682293821263364,0.317706178736636
"196",205,"Larceny","100  Delray Av","12/9/2016",100,"DELRAY AVE","100  DELRAY AV ",-76.1037786311123,43.0497208156891,0.544790241189869,0.455209758810131
"206",215,"Burglary","1200  Oak St","12/8/2016",1200,"OAK ST","1200  OAK ST ",-76.1364372529517,43.0684692896907,0.520642729725048,0.479357270274952
"209",218,"Larceny","100  Dickerson St","12/8/2016",100,"DICKERSON ST","100  DICKERSON ST ",-76.1535353039337,43.0443774146349,0.659561811383104,0.340438188616896
"215",225,"Burglary","300  Richmond Av","12/7/2016",300,"RICHMOND AVE","300  RICHMOND AV ",-76.1707011902955,43.0501479117892,0.680004116153643,0.319995883846357
"219",229,"Larceny","1100  Oak St","12/7/2016",1100,"OAK ST","1100  OAK ST ",-76.1363352919045,43.0669258241039,0.520642729725048,0.479357270274952
"224",234,"Vehicle theft","100  Roney Ln","12/7/2016",100,"RONEY LN","100  RONEY LN ",-76.1359419249577,43.0219167309359,0.691764466426029,0.308235533573971
"229",239,"Burglary","400  Shuart Av","12/6/2016",400,"SHUART AVE","400  SHUART AV ",-76.1248196228702,43.0619574439907,0.565850905726529,0.434149094273471
"241",251,"Robbery","100  Roney Ln","12/6/2016",100,"RONEY LN","100  RONEY LN ",-76.1359419249577,43.0219167309359,0.691764466426029,0.308235533573971
"246",256,"Burglary","300  Lexington Av","12/5/2016",300,"LEXINGTON AVE","300  LEXINGTON AV ",-76.1198497442508,43.0471403914583,0.709019534321117,0.290980465678883
"255",266,"Burglary","100  Redfield Pl","12/4/2016",100,"REDFIELD PL","100  REDFIELD PL ",-76.123242609741,43.0375182337046,0.632440618704202,0.367559381295798
"256",267,"Burglary","200  Columbus Av","12/4/2016",200,"COLUMBUS AVE","200  COLUMBUS AV ",-76.1213731749543,43.0482913580808,0.85835410425398,0.14164589574602
"266",278,"Burglary","400  Westmoreland Av","12/3/2016",400,"WESTMORELAND AVE","400  WESTMORELAND AV ",-76.114673301913,43.0472338262628,0.733046442237987,0.266953557762013
"275",288,"Burglary","100  Hubbell Av","12/2/2016",100,"HUBBELL AVE","100  HUBBELL AV ",-76.1706462732221,43.0329971710229,0.629202605330538,0.370797394669462
"282",295,"Larceny","200  Belle Av","12/2/2016",200,"BELLE AVE","200  BELLE AV ",-76.1420274799615,43.0115863726713,0.545816833513134,0.454183166486866
"283",296,"Larceny","200  N  Lowell Av","12/2/2016",200,"N LOWELL AVE","200  N  LOWELL AV ",-76.1828395620584,43.0491242137779,0.732168741893687,0.267831258106313
"285",298,"Larceny","300  Apple St","12/2/2016",300,"APPLE ST","300  APPLE ST ",-76.1763280285521,43.0511832674985,0.592789956255338,0.407210043744662
"288",301,"Robbery","300  Rowland St","12/2/2016",300,"ROWLAND ST","300  ROWLAND ST ",-76.1739907509502,43.035954712137,0.592337526286832,0.407662473713168
"291",304,"Burglary","400  W  Colvin St","12/1/2016",400,"W COLVIN ST","400  W  COLVIN ST ",-76.1493594886405,43.0245479901315,0.776320645225389,0.223679354774611
"292",305,"Burglary","400  W  Colvin St","12/1/2016",400,"W COLVIN ST","400  W  COLVIN ST ",-76.1493594886405,43.0245479901315,0.776320645225389,0.223679354774611
"302",316,"Burglary","1500  Ivy Ridge Rd","11/30/2016",1500,"IVY RIDGE RD","1500  IVY RIDGE RD ",-76.13478268712,43.0182248348227,0.511999755866786,0.488000244133214
"303",317,"Burglary","200  Richmond Av","11/30/2016",200,"RICHMOND AVE","200  RICHMOND AV ",-76.1684384752133,43.0500550622016,0.680004116153643,0.319995883846357
"305",319,"Burglary","300  Village Dr","11/30/2016",300,"VILLAGE DR","300  VILLAGE DR ",-76.1167722048167,43.0720599559677,0.569373408318938,0.430626591681062
"306",320,"Burglary","800  Westmoreland Av","11/30/2016",800,"WESTMORELAND AVE","800  WESTMORELAND AV ",-76.1141020829536,43.0392440530672,0.733046442237987,0.266953557762013
"332",347,"Larceny","300  Merritt Av","11/29/2016",300,"MERRITT AVE","300  MERRITT AV ",-76.1573816547955,42.9989403937602,0.514577195252913,0.485422804747087
"338",353,"Burglary","1300  Oak St","11/28/2016",1300,"OAK ST","1300  OAK ST ",-76.1365032893662,43.0693630167611,0.520642729725048,0.479357270274952
"339",354,"Burglary","1400  Ivy Ridge Rd","11/28/2016",1400,"IVY RIDGE RD","1400  IVY RIDGE RD ",-76.13478268712,43.0182248348227,0.511999755866786,0.488000244133214
"340",355,"Burglary","1800  E  Fayette St","11/28/2016",1800,"E FAYETTE ST","1800  E  FAYETTE ST ",-76.1190887626382,43.0482641294941,0.53361597475532,0.46638402524468
"341",356,"Burglary","700  Avery Av","11/28/2016",700,"AVERY AVE","700  AVERY AV ",-76.194019442006,43.0513723336755,0.543358546339359,0.456641453660641
"356",371,"Larceny","700  S  Beech St","11/28/2016",700,"S BEECH ST","700  S  BEECH ST ",-76.1219175903398,43.0424120805392,0.502468280199766,0.497531719800234
"362",378,"Aggravated assault","500  Richmond Av","11/27/2016",500,"RICHMOND AVE","500  RICHMOND AV ",-76.1746165616025,43.0502492662197,0.680004116153643,0.319995883846357
"363",379,"Burglary","100  Camp Av","11/27/2016",100,"CAMP AVE","100  CAMP AV ",-76.1557969086283,43.0080822710167,0.657396920508547,0.342603079491453
"365",381,"Burglary","100  Westminster Av","11/27/2016",100,"WESTMINSTER AVE","100  WESTMINSTER AV ",-76.1213714776814,43.0349665224533,0.545851909614937,0.454148090385063
"369",385,"Larceny","100  Webster Av","11/27/2016",100,"WEBSTER AVE","100  WEBSTER AV ",-76.1464053574549,43.0252378236086,0.531062738625654,0.468937261374346
"378",395,"Burglary","1400  Ivy Ridge Rd","11/26/2016",1400,"IVY RIDGE RD","1400  IVY RIDGE RD ",-76.13478268712,43.0182248348227,0.511999755866786,0.488000244133214
"389",406,"Aggravated assault","100  Ballantyne Rd","11/25/2016",100,"BALLANTYNE RD","100  BALLANTYNE RD ",-76.1421660170882,43.0107095503917,0.505925085049764,0.494074914950236
"390",407,"Aggravated assault","1200  Carbon St","11/25/2016",1200,"CARBON ST","1200  CARBON ST ",-76.1619525341577,43.0715322224889,0.571158049073187,0.428841950926813
"393",411,"Burglary","100  Roney Rd","11/25/2016",100,"RONEY RD","100  RONEY RD ",-76.1428438677361,43.0025014271584,0.503691763310277,0.496308236689723
"402",420,"Aggravated assault","100  W  Bissell St","11/24/2016",100,"W BISSELL ST","100  W  BISSELL ST ",-76.1588785366438,43.0257985007,0.747203977078916,0.252796022921084
"409",427,"Aggravated assault","100  Dyer Ct","11/23/2016",100,"DYER CT","100  DYER CT ",-76.1423941948191,43.0404147583153,0.911029289724601,0.0889707102753986
"410",428,"Burglary","100  Camp Av","11/23/2016",100,"CAMP AVE","100  CAMP AV ",-76.1557969086283,43.0080822710167,0.657396920508547,0.342603079491453
"411",429,"Burglary","100  Concord Pl","11/23/2016",100,"CONCORD PL","100  CONCORD PL ",-76.1188277843244,43.0397970393368,0.750190545672117,0.249809454327883
"416",434,"Aggravated assault","300  Primrose Av","11/22/2016",300,"PRIMROSE AVE","300  PRIMROSE AV ",-76.1480640865731,43.0147858496745,0.636391723401872,0.363608276598128
"418",436,"Larceny","100  Victoria Pl","11/22/2016",100,"VICTORIA PL","100  VICTORIA PL ",-76.1192800864183,43.0406364103005,0.520430891525184,0.479569108474816
"420",438,"Larceny","200  Cortland Av","11/22/2016",200,"CORTLAND AVE","200  CORTLAND AV ",-76.1506684440527,43.0363896079372,0.603588225973158,0.396411774026842
"428",446,"Burglary","700  Hickory St","11/21/2016",700,"HICKORY ST","700  HICKORY ST ",-76.1444037492439,43.0566056093948,0.554735717550385,0.445264282449615
"434",452,"Larceny","700  S  Beech St","11/21/2016",700,"S BEECH ST","700  S  BEECH ST ",-76.1219175903398,43.0424120805392,0.502468280199766,0.497531719800234
"439",457,"Larceny","100  Cortland Pl","11/20/2016",100,"CORTLAND PL","100  CORTLAND PL ",-76.1533165140121,43.0033026381089,0.911029289724601,0.0889707102753986
"440",458,"Larceny","100  Genesee Park Dr","11/20/2016",100,"GENESEE PARK DR","100  GENESEE PARK DR ",-76.1095946622769,43.05068083549,0.622901625624658,0.377098374375342
"450",469,"Burglary","100  Benedict Av","11/19/2016",100,"BENEDICT AVE","100  BENEDICT AV ",-76.1381994153516,43.0262119466263,0.911029289724601,0.0889707102753986
"454",473,"Larceny","1800  Teall Av","11/19/2016",1800,"TEALL AVE","1800  TEALL AV ",-76.1231552458591,43.0722097488932,0.532885384240931,0.467114615759069
"456",475,"Larceny","600  Oakwood Av","11/19/2016",600,"OAKWOOD AVE","600  OAKWOOD AV ",-76.1441198868712,43.0314528834876,0.557291023500547,0.442708976499453
"461",480,"Aggravated assault","100  Hartson St","11/18/2016",100,"HARTSON ST","100  HARTSON ST ",-76.1737053719233,43.036684247544,0.512758634786599,0.487241365213401
"474",493,"Aggravated assault","100  Hiawatha Pl","11/17/2016",100,"HIAWATHA PL","100  HIAWATHA PL ",-76.1581880960277,43.0793188436562,0.567324257147927,0.432675742852073
"476",495,"Burglary","100  N  Lowell Av","11/17/2016",100,"N LOWELL AVE","100  N  LOWELL AV ",-76.1820010821181,43.0479154432495,0.732168741893687,0.267831258106313
"484",503,"Vehicle theft","100  Kenmore Av","11/17/2016",100,"KENMORE AVE","100  KENMORE AV ",-76.152104958176,43.0169873130226,0.509368770481118,0.490631229518882
"485",504,"Vehicle theft","800  Oak St","11/17/2016",800,"OAK ST","800  OAK ST ",-76.1360738945882,43.0632489559564,0.520642729725048,0.479357270274952
"488",508,"Burglary","200  W  Pleasant Av","11/16/2016",200,"W PLEASANT AVE","200  W  PLEASANT AV ",-76.1451797496038,43.0168680924133,0.911029289724601,0.0889707102753986
"498",518,"Aggravated assault","1000  Oak St","11/15/2016",1000,"OAK ST","1000  OAK ST ",-76.1362435702939,43.0656112969401,0.520642729725048,0.479357270274952
"509",529,"Robbery","300  Seymour St","11/15/2016",300,"SEYMOUR ST","300  SEYMOUR ST ",-76.1603902753616,43.0424384642626,0.57018435748122,0.42981564251878
"511",531,"Aggravated assault","100  W  Borden Av","11/14/2016",100,"W BORDEN AVE","100  W  BORDEN AV ",-76.1463897337502,43.0278715399803,0.723481838212732,0.276518161787268
"515",535,"Burglary","200  Strathmore Dr","11/14/2016",200,"STRATHMORE DR","200  STRATHMORE DR ",-76.1707569563988,43.022581550718,0.508256005411503,0.491743994588497
"517",537,"Burglary","500  Cedar St","11/14/2016",500,"CEDAR ST","500  CEDAR ST ",-76.1421900452086,43.046193753172,0.911029289724601,0.0889707102753986
"520",540,"Larceny","100  Weiser Ct","11/14/2016",100,"WEISER CT","100  WEISER CT ",-76.1448583310959,43.0427453530301,0.588623609984441,0.411376390015559
"522",542,"Larceny","200  Hope Av","11/14/2016",200,"HOPE AVE","200  HOPE AV ",-76.1516362176246,43.0215853172144,0.812231293451133,0.187768706548867
"544",564,"Arson","1100  Carbon St","11/12/2016",1100,"CARBON ST","1100  CARBON ST ",-76.1603852180858,43.0709011912659,0.571158049073187,0.428841950926813
"545",565,"Burglary","100  Malcolm St","11/12/2016",100,"MALCOLM ST","100  MALCOLM ST ",-76.1663554798711,43.0346612280316,0.911029289724601,0.0889707102753986
"548",568,"Larceny","100  Ivy Ridge Rd","11/12/2016",100,"IVY RIDGE RD","100  IVY RIDGE RD ",-76.13478268712,43.0182248348227,0.511999755866786,0.488000244133214
"565",586,"Burglary","200  Griffiths St","11/10/2016",200,"GRIFFITHS ST","200  GRIFFITHS ST ",-76.1450101707415,43.0688599851473,0.520316578120463,0.479683421879537
"566",587,"Burglary","300  E  Division St","11/10/2016",300,"E DIVISION ST","300  E  DIVISION ST ",-76.1531172152779,43.0605184759536,0.511226468159783,0.488773531840217
"568",589,"Larceny","100  Carlisle St","11/10/2016",100,"CARLISLE ST","100  CARLISLE ST ",-76.1530912690287,43.0679682264729,0.911029289724601,0.0889707102753986
"573",594,"Larceny","300  Apple St","11/10/2016",300,"APPLE ST","300  APPLE ST ",-76.1763280285521,43.0511832674985,0.592789956255338,0.407210043744662
"587",608,"Larceny","400  S  Beech St","11/9/2016",400,"S BEECH ST","400  S  BEECH ST ",-76.1276972991226,43.0470068116037,0.502468280199766,0.497531719800234
"600",622,"Larceny","200  Cortland Av","11/8/2016",200,"CORTLAND AVE","200  CORTLAND AV ",-76.1506684440527,43.0363896079372,0.603588225973158,0.396411774026842
"610",632,"Arson","300  Bear St","11/7/2016",300,"BEAR ST","300  BEAR ST ",-76.1621045480879,43.0685961715064,0.537886725381712,0.462113274618288
"611",633,"Burglary","100  Genesee Park Dr","11/7/2016",100,"GENESEE PARK DR","100  GENESEE PARK DR ",-76.1095946622769,43.05068083549,0.622901625624658,0.377098374375342
"626",648,"Vehicle theft","100  E  Cheltenham Rd","11/7/2016",100,"E CHELTENHAM RD","100  E  CHELTENHAM RD ",-76.1435030670719,42.9951635005002,0.741712098117872,0.258287901882128
"639",662,"Robbery","600  E  Division St","11/6/2016",600,"E DIVISION ST","600  E  DIVISION ST ",-76.1502819702631,43.0616672561912,0.511226468159783,0.488773531840217
"640",663,"Vehicle theft","100  W  Newell St","11/6/2016",100,"W NEWELL ST","100  W  NEWELL ST ",-76.1417308126123,43.0180343749905,0.507024869645368,0.492975130354632
"642",665,"Arson","100  Mark Av","11/5/2016",100,"MARK AVE","100  MARK AV ",-76.1500457375253,43.0259774024648,0.753941407524129,0.246058592475871
"643",666,"Burglary","200  Ashdale Av","11/5/2016",200,"ASHDALE AVE","200  ASHDALE AV ",-76.1085843590565,43.0706733267766,0.523041213939884,0.476958786060116
"647",670,"Larceny","100  Hudson St","11/5/2016",100,"HUDSON ST","100  HUDSON ST ",-76.1601595417722,43.0360060907968,0.679787408416991,0.320212591583009
"652",676,"Burglary","100  Wood Av","11/4/2016",100,"WOOD AVE","100  WOOD AV ",-76.1455627801724,43.0261215642639,0.56777264668792,0.43222735331208
"653",677,"Burglary","1300  E  Fayette St","11/4/2016",1300,"E FAYETTE ST","1300  E  FAYETTE ST ",-76.1297719755233,43.0484013635829,0.53361597475532,0.46638402524468
"655",680,"Larceny","100  Roney Ln","11/4/2016",100,"RONEY LN","100  RONEY LN ",-76.1359419249577,43.0219167309359,0.691764466426029,0.308235533573971
"663",688,"Burglary","100  Euclid Ter","11/3/2016",100,"EUCLID TER","100  EUCLID TER ",-76.1178687116006,43.0368620464487,0.911029289724601,0.0889707102753986
"670",695,"Larceny","200  New St","11/3/2016",200,"NEW ST","200  NEW ST ",-76.1488886419686,43.0405851642931,0.511653466885428,0.488346533114572
"683",708,"Burglary","200  Arlington Av","11/2/2016",200,"ARLINGTON AVE","200  ARLINGTON AV ",-76.166885216109,43.022718727619,0.911029289724601,0.0889707102753986
"685",710,"Burglary","200  Guilford Rd","11/2/2016",200,"GUILFORD RD","200  GUILFORD RD ",-76.0946091958566,43.0360467474747,0.911029289724601,0.0889707102753986
"687",713,"Larceny","200  E  Belden Av","11/2/2016",200,"E BELDEN AVE","200  E  BELDEN AV ",-76.1512361255953,43.0547952514307,0.911029289724601,0.0889707102753986
"692",719,"Burglary","100  Griffiths St","11/1/2016",100,"GRIFFITHS ST","100  GRIFFITHS ST ",-76.1433338769611,43.0681906788335,0.520316578120463,0.479683421879537
"712",741,"Vehicle theft","100  Ashdale Av","10/31/2016",100,"ASHDALE AVE","100  ASHDALE AV ",-76.1084765368222,43.0687510817492,0.523041213939884,0.476958786060116
"714",743,"Arson","200  Massena St","10/30/2016",200,"MASSENA ST","200  MASSENA ST ",-76.1673932611138,43.040232397031,0.911029289724601,0.0889707102753986
"726",755,"Larceny","400  Craig St","10/30/2016",400,"CRAIG ST","400  CRAIG ST ",-76.1456532452401,43.0711824890454,0.911029289724601,0.0889707102753986
"729",758,"Aggravated assault","100  Steuben St","10/29/2016",100,"STEUBEN ST","100  STEUBEN ST ",-76.1519742466533,43.0653040272821,0.828948066006586,0.171051933993414
"731",760,"Burglary","100  Gordon Av","10/29/2016",100,"GORDON AVE","100  GORDON AV ",-76.1703809755292,43.0292230457089,0.676482151655698,0.323517848344302
"732",761,"Burglary","100  Redfield Pl","10/29/2016",100,"REDFIELD PL","100  REDFIELD PL ",-76.123242609741,43.0375182337046,0.632440618704202,0.367559381295798
"737",766,"Larceny","100  Clifton Pl","10/29/2016",100,"CLIFTON PL","100  CLIFTON PL ",-76.1169827668974,43.0678128550781,0.540655791826907,0.459344208173093
"739",768,"Larceny","100  Elmwood Av","10/29/2016",100,"ELMWOOD AVE","100  ELMWOOD AV ",-76.1614565245154,43.0187268081398,0.573336364394796,0.426663635605204
"745",774,"Larceny","400  Woodruff Av","10/29/2016",400,"WOODRUFF AVE","400  WOODRUFF AV ",-76.1380636468221,43.0723295114772,0.565446636511444,0.434553363488556
"755",785,"Larceny","100  Bradley St","10/28/2016",100,"BRADLEY ST","100  BRADLEY ST ",-76.1720361986398,43.0365427905424,0.575601290518406,0.424398709481594
"756",786,"Larceny","100  Mark Av","10/28/2016",100,"MARK AVE","100  MARK AV ",-76.1500457375253,43.0259774024648,0.753941407524129,0.246058592475871
"757",787,"Larceny","100  Redfield Pl","10/28/2016",100,"REDFIELD PL","100  REDFIELD PL ",-76.123242609741,43.0375182337046,0.632440618704202,0.367559381295798
"774",807,"Burglary","300  Scott Av","10/26/2016",300,"SCOTT AVE","300  SCOTT AV ",-76.1079892647472,43.0391537273447,0.63203368806555,0.36796631193445
"779",812,"Larceny","1600  W  Colvin St","10/26/2016",1600,"W COLVIN ST","1600  W  COLVIN ST ",-76.1627267809021,43.0229899298359,0.776320645225389,0.223679354774611
"787",820,"Arson","300  Mount Olympus Dr","10/25/2016",300,"MOUNT OLYMPUS DR","300  MOUNT OLYMPUS DR ",-76.1315967403055,43.0337217096147,0.911029289724601,0.0889707102753986
"789",822,"Burglary","200  W  Corning Av","10/25/2016",200,"W CORNING AVE","200  W  CORNING AV ",-76.1459067588597,43.0184225321866,0.505798957184412,0.494201042815588
"804",837,"Aggravated assault","100  Mooney Av","10/24/2016",100,"MOONEY AVE","100  MOONEY AV ",-76.1225453436397,43.0627277359036,0.911029289724601,0.0889707102753986
"805",838,"Aggravated assault","200  Webster Av","10/24/2016",200,"WEBSTER AVE","200  WEBSTER AV ",-76.1464053574549,43.0252378236086,0.531062738625654,0.468937261374346
"806",839,"Burglary","100  Griffiths St","10/24/2016",100,"GRIFFITHS ST","100  GRIFFITHS ST ",-76.1433338769611,43.0681906788335,0.520316578120463,0.479683421879537
"807",840,"Burglary","300  Hudson St","10/24/2016",300,"HUDSON ST","300  HUDSON ST ",-76.1600010887034,43.0318088356788,0.679787408416991,0.320212591583009
"817",850,"Larceny","100  Sand St","10/24/2016",100,"SAND ST","100  SAND ST ",-76.167725124044,43.0535614931291,0.911029289724601,0.0889707102753986
"831",864,"Aggravated assault","100  Wood Av","10/23/2016",100,"WOOD AVE","100  WOOD AV ",-76.1455627801724,43.0261215642639,0.56777264668792,0.43222735331208
"832",865,"Aggravated assault","600  Catherine St","10/23/2016",600,"CATHERINE ST","600  CATHERINE ST ",-76.1444037492439,43.0566056093948,0.530462668713336,0.469537331286664
"834",867,"Larceny","100  Wood Av","10/23/2016",100,"WOOD AVE","100  WOOD AV ",-76.1455627801724,43.0261215642639,0.56777264668792,0.43222735331208
"847",880,"Aggravated assault","1100  Cannon St","10/22/2016",1100,"CANNON ST","1100  CANNON ST ",-76.1451272614013,43.0157356989055,0.604078803917536,0.395921196082464
"848",881,"Aggravated assault","200  Seymour St","10/22/2016",200,"SEYMOUR ST","200  SEYMOUR ST ",-76.1579816284158,43.04254444969,0.57018435748122,0.42981564251878
"850",883,"Burglary","200  Rockland Av","10/22/2016",200,"ROCKLAND AVE","200  ROCKLAND AV ",-76.1567503446499,43.0240091370389,0.911029289724601,0.0889707102753986
"851",884,"Burglary","600  Oakwood Av","10/22/2016",600,"OAKWOOD AVE","600  OAKWOOD AV ",-76.1441198868712,43.0314528834876,0.557291023500547,0.442708976499453
"856",889,"Aggravated assault","100  Dickerson St","10/21/2016",100,"DICKERSON ST","100  DICKERSON ST ",-76.1535353039337,43.0443774146349,0.659561811383104,0.340438188616896
"865",899,"Larceny","200  W  Corning Av","10/21/2016",200,"W CORNING AVE","200  W  CORNING AV ",-76.1459067588597,43.0184225321866,0.505798957184412,0.494201042815588
"875",911,"Burglary","100  Parkside Av","10/20/2016",100,"PARKSIDE AVE","100  PARKSIDE AV ",-76.1608533575869,43.0254146797949,0.50235126945862,0.49764873054138
"876",912,"Burglary","100  Richmond Av","10/20/2016",100,"RICHMOND AVE","100  RICHMOND AV ",-76.1662156647587,43.0500033145899,0.680004116153643,0.319995883846357
"877",913,"Burglary","200  Driscoll Av","10/20/2016",200,"DRISCOLL AVE","200  DRISCOLL AV ",-76.1964871670104,43.0531875246156,0.911029289724601,0.0889707102753986
"882",918,"Larceny","100  Redfield Pl","10/20/2016",100,"REDFIELD PL","100  REDFIELD PL ",-76.123242609741,43.0375182337046,0.632440618704202,0.367559381295798
"884",920,"Larceny","500  Hickory St","10/20/2016",500,"HICKORY ST","500  HICKORY ST ",-76.1472710281375,43.0551873497351,0.554735717550385,0.445264282449615
"888",924,"Vehicle theft","300  Union Pl","10/20/2016",300,"UNION PL","300  UNION PL ",-76.1555516570611,43.0644896780885,0.74367334324902,0.25632665675098
"891",927,"Burglary","200  Lynch Av","10/19/2016",200,"LYNCH AVE","200  LYNCH AV ",-76.1653446454312,43.0147246660601,0.829093749481577,0.170906250518423
"892",928,"Burglary","200  W  Corning Av","10/19/2016",200,"W CORNING AVE","200  W  CORNING AV ",-76.1459067588597,43.0184225321866,0.505798957184412,0.494201042815588
"906",943,"Robbery","100  Mcclure Av","10/19/2016",100,"MCCLURE AVE","100  MCCLURE AV ",-76.1433468560455,43.0214155625756,0.550428975988623,0.449571024011377
"908",945,"Aggravated assault","100  Herkimer St","10/18/2016",100,"HERKIMER ST","100  HERKIMER ST ",-76.1886000217457,43.0546666638086,0.615328564627682,0.384671435372318
"911",948,"Aggravated assault","300  Rich St","10/18/2016",300,"RICH ST","300  RICH ST ",-76.1612369952697,43.0333724140664,0.588991463297945,0.411008536702055
"920",958,"Larceny","1100  E  Fayette St","10/18/2016",1100,"E FAYETTE ST","1100  E  FAYETTE ST ",-76.1342906663996,43.0484617349681,0.53361597475532,0.46638402524468
"930",969,"Aggravated assault","300  Hudson St","10/17/2016",300,"HUDSON ST","300  HUDSON ST ",-76.1600010887034,43.0318088356788,0.679787408416991,0.320212591583009
"942",982,"Larceny","300  Richmond Av","10/17/2016",300,"RICHMOND AVE","300  RICHMOND AV ",-76.1707011902955,43.0501479117892,0.680004116153643,0.319995883846357
"943",983,"Larceny","500  Carbon St","10/17/2016",500,"CARBON ST","500  CARBON ST ",-76.1482096592377,43.0660074654461,0.571158049073187,0.428841950926813
"945",985,"Robbery","200  Knaul St","10/17/2016",200,"KNAUL ST","200  KNAUL ST ",-76.141714612716,43.0664930529162,0.569190699726909,0.430809300273091
"947",987,"Aggravated assault","100  Niven St","10/16/2016",100,"NIVEN ST","100  NIVEN ST ",-76.1081313076035,43.0475025256789,0.911029289724601,0.0889707102753986
"950",990,"Burglary","300  Ashdale Av","10/16/2016",300,"ASHDALE AVE","300  ASHDALE AV ",-76.1087467783777,43.0735281596667,0.523041213939884,0.476958786060116
"951",991,"Burglary","300  Columbus Av","10/16/2016",300,"COLUMBUS AVE","300  COLUMBUS AV ",-76.1214067644089,43.0471166682725,0.85835410425398,0.14164589574602
"955",995,"Larceny","200  Lime St","10/16/2016",200,"LIME ST","200  LIME ST ",-76.0941490530953,43.053572770523,0.911029289724601,0.0889707102753986
"964",1004,"Robbery","400  W  Colvin St","10/16/2016",400,"W COLVIN ST","400  W  COLVIN ST ",-76.1493594886405,43.0245479901315,0.776320645225389,0.223679354774611
"965",1005,"Aggravated assault","100  Jasper Pl","10/15/2016",100,"JASPER PL","100  JASPER PL ",-76.1414294175882,43.0621295704994,0.911029289724601,0.0889707102753986
"970",1011,"Larceny","100  Wood Av","10/15/2016",100,"WOOD AVE","100  WOOD AV ",-76.1455627801724,43.0261215642639,0.56777264668792,0.43222735331208
"980",1021,"Aggravated assault","600  E  Division St","10/14/2016",600,"E DIVISION ST","600  E  DIVISION ST ",-76.1502819702631,43.0616672561912,0.511226468159783,0.488773531840217
"997",1038,"Arson","400  W  Ostrander Av","10/13/2016",400,"W OSTRANDER AVE","400  W  OSTRANDER AV ",-76.1479925339079,43.0139644712051,0.573320298703741,0.426679701296259
"999",1040,"Burglary","200  Herkimer St","10/13/2016",200,"HERKIMER ST","200  HERKIMER ST ",-76.1897421637917,43.0542272879894,0.615328564627682,0.384671435372318
"1010",1053,"Arson","100  Steuben St","10/12/2016",100,"STEUBEN ST","100  STEUBEN ST ",-76.1519742466533,43.0653040272821,0.828948066006586,0.171051933993414
"1011",1054,"Burglary","900  S  Mcbride St","10/12/2016",900,"S MCBRIDE ST","900  S  MCBRIDE ST ",-76.1439715384078,43.0427426403852,0.540845874148718,0.459154125851282
"1016",1059,"Larceny","200  Rich St","10/12/2016",200,"RICH ST","200  RICH ST ",-76.1615355109865,43.0357973073755,0.588991463297945,0.411008536702055
"1017",1060,"Larceny","200  Wilson St","10/12/2016",200,"WILSON ST","200  WILSON ST ",-76.1253272242297,43.0625058178449,0.620048235088315,0.379951764911685
"1024",1067,"Robbery","100  Roney Ln","10/12/2016",100,"RONEY LN","100  RONEY LN ",-76.1359419249577,43.0219167309359,0.691764466426029,0.308235533573971
"1027",1070,"Arson","300  W  Brighton Av","10/11/2016",300,"W BRIGHTON AVE","300  W  BRIGHTON AV ",-76.1492852256358,43.0200223706288,0.568288962307457,0.431711037692543
"1033",1076,"Larceny","200  Sedgwick St","10/11/2016",200,"SEDGWICK ST","200  SEDGWICK ST ",-76.1293071952654,43.0597529728646,0.650597347991168,0.349402652008832
"1047",1090,"Burglary","100  Dorset Rd","10/10/2016",100,"DORSET RD","100  DORSET RD ",-76.1276010134435,43.0331387581117,0.911029289724601,0.0889707102753986
"1048",1091,"Burglary","100  Huron St","10/10/2016",100,"HURON ST","100  HURON ST ",-76.1564222533509,43.0335785978335,0.554132887000773,0.445867112999227
"1050",1093,"Larceny","100  Bertram Pl","10/10/2016",100,"BERTRAM PL","100  BERTRAM PL ",-76.1573985940235,43.0173536831041,0.50846654543392,0.49153345456608
"1052",1095,"Larceny","200  Miles Av","10/10/2016",200,"MILES AVE","200  MILES AV ",-76.1162121218397,43.0336984009822,0.521910643610309,0.478089356389691
"1061",1106,"Burglary","300  W  Kennedy St","10/9/2016",300,"W KENNEDY ST","300  W  KENNEDY ST ",-76.1528434233338,43.0293485083312,0.911029289724601,0.0889707102753986
"1066",1111,"Larceny","200  Griffiths St","10/9/2016",200,"GRIFFITHS ST","200  GRIFFITHS ST ",-76.1450101707415,43.0688599851473,0.520316578120463,0.479683421879537
"1067",1114,"Aggravated assault","200  Westmoreland Av","10/8/2016",200,"WESTMORELAND AVE","200  WESTMORELAND AV ",-76.1149694180707,43.0504189446029,0.733046442237987,0.266953557762013
"1069",1116,"Burglary","200  Lynch Av","10/8/2016",200,"LYNCH AVE","200  LYNCH AV ",-76.1653446454312,43.0147246660601,0.829093749481577,0.170906250518423
"1078",1125,"Larceny","100  Peck Av","10/8/2016",100,"PECK AVE","100  PECK AV ",-76.1188404841777,43.0669051045722,0.535290591418113,0.464709408581887
"1082",1129,"Larceny","300  Wainwright Av","10/8/2016",300,"WAINWRIGHT AVE","300  WAINWRIGHT AV ",-76.1335530010354,43.0770932355548,0.578024562024242,0.421975437975758
"1088",1137,"Burglary","300  Beecher St","10/7/2016",300,"BEECHER ST","300  BEECHER ST ",-76.1393789840591,43.0613643336671,0.670097551838331,0.329902448161669
"1091",1140,"Larceny","200  Delray Av","10/7/2016",200,"DELRAY AVE","200  DELRAY AV ",-76.1002636518928,43.0498972520022,0.544790241189869,0.455209758810131
"1094",1143,"Larceny","400  Clarence Av","10/7/2016",400,"CLARENCE AVE","400  CLARENCE AV ",-76.1397135520818,43.0043649272339,0.536789520660806,0.463210479339194
"1097",1146,"Larceny","600  Bear St","10/7/2016",600,"BEAR ST","600  BEAR ST ",-76.1595252256123,43.0720485692995,0.537886725381712,0.462113274618288
"1102",1151,"Aggravated assault","100  Melbourne Av","10/6/2016",100,"MELBOURNE AVE","100  MELBOURNE AV ",-76.0965253727395,43.0509022699666,0.911029289724601,0.0889707102753986
"1105",1154,"Burglary","100  Edgewood Av","10/6/2016",100,"EDGEWOOD AVE","100  EDGEWOOD AV ",-76.1651468635414,43.0176890438241,0.544662394338163,0.455337605661837
"1106",1155,"Burglary","100  Hudson St","10/6/2016",100,"HUDSON ST","100  HUDSON ST ",-76.1601595417722,43.0360060907968,0.679787408416991,0.320212591583009
"1107",1156,"Burglary","100  Willumae Dr","10/6/2016",100,"WILLUMAE DR","100  WILLUMAE DR ",-76.1502860405141,43.0763599601043,0.56871580764648,0.43128419235352
"1110",1159,"Larceny","200  Ashdale Av","10/6/2016",200,"ASHDALE AVE","200  ASHDALE AV ",-76.1085843590565,43.0706733267766,0.523041213939884,0.476958786060116
"1116",1165,"Larceny","500  Wadsworth St","10/6/2016",500,"WADSWORTH ST","500  WADSWORTH ST ",-76.1392364151493,43.0749492455121,0.521072924984842,0.478927075015158
"1120",1169,"Aggravated assault","100  E  Washington St","10/5/2016",100,"E WASHINGTON ST","100  E  WASHINGTON ST ",-76.1522041405805,43.0495975435855,0.545419311418735,0.454580688581265
"1121",1170,"Aggravated assault","100  Essex St","10/5/2016",100,"ESSEX ST","100  ESSEX ST ",-76.1927916945648,43.0567773364555,0.584554477855811,0.415445522144189
"1122",1171,"Aggravated assault","200  Mclennan Av","10/5/2016",200,"MCLENNAN AVE","200  MCLENNAN AV ",-76.148842165952,43.0282070447605,0.51469551624342,0.48530448375658
"1123",1172,"Aggravated assault","300  Bruce St","10/5/2016",300,"BRUCE ST","300  BRUCE ST ",-76.1116081477862,43.0482440196146,0.62594014375002,0.37405985624998
"1132",1181,"Aggravated assault","1100  W  Colvin St","10/4/2016",1100,"W COLVIN ST","1100  W  COLVIN ST ",-76.1569049536822,43.0231477921087,0.776320645225389,0.223679354774611
"1138",1188,"Robbery","400  Burdick Av","10/4/2016",400,"BURDICK AVE","400  BURDICK AV ",-76.1559677674429,43.0774823892059,0.565537200212366,0.434462799787634
"1141",1192,"Burglary","100  Herkimer St","10/3/2016",100,"HERKIMER ST","100  HERKIMER ST ",-76.1886000217457,43.0546666638086,0.615328564627682,0.384671435372318
"1142",1193,"Burglary","300  Elm St","10/3/2016",300,"ELM ST","300  ELM ST ",-76.1300909087891,43.0520592062509,0.552622107296605,0.447377892703395
"1143",1194,"Burglary","300  Hope Av","10/3/2016",300,"HOPE AVE","300  HOPE AV ",-76.1512835096528,43.0206541580463,0.812231293451133,0.187768706548867
"1145",1196,"Larceny","100  Comstock Pl","10/3/2016",100,"COMSTOCK PL","100  COMSTOCK PL ",-76.130724523208,43.0463099791808,0.710987331321767,0.289012668678233
"1150",1201,"Aggravated assault","100  W  Matson Av","10/2/2016",100,"W MATSON AVE","100  W  MATSON AV ",-76.141744237902,43.0133537711439,0.59183673505225,0.40816326494775
"1159",1211,"Robbery","100  Oak St","10/2/2016",100,"OAK ST","100  OAK ST ",-76.1330589168687,43.05238067231,0.520642729725048,0.479357270274952
"1160",1212,"Vehicle theft","100  Dillaye Av","10/2/2016",100,"DILLAYE AVE","100  DILLAYE AV ",-76.116845150931,43.0556774623155,0.911029289724601,0.0889707102753986
"1161",1213,"Vehicle theft","100  Seymour St","10/2/2016",100,"SEYMOUR ST","100  SEYMOUR ST ",-76.1546680399892,43.0425821965474,0.57018435748122,0.42981564251878
"1167",1220,"Burglary","200  Hixson Av","10/1/2016",200,"HIXSON AVE","200  HIXSON AV ",-76.1202149676515,43.0643581136619,0.721272154998655,0.278727845001345
"1181",1235,"Larceny","1400  Ivy Ridge Rd","9/30/2016",1400,"IVY RIDGE RD","1400  IVY RIDGE RD ",-76.13478268712,43.0182248348227,0.511999755866786,0.488000244133214
"1191",1245,"Burglary","100  Hudson St","9/29/2016",100,"HUDSON ST","100  HUDSON ST ",-76.1601595417722,43.0360060907968,0.679787408416991,0.320212591583009
"1194",1248,"Burglary","400  Herkimer St","9/29/2016",400,"HERKIMER ST","400  HERKIMER ST ",-76.1926997342893,43.0530971608462,0.615328564627682,0.384671435372318
"1207",1261,"Aggravated assault","100  Morgan Av","9/28/2016",100,"MORGAN AVE","100  MORGAN AV ",-76.1982139290062,43.0573241675993,0.911029289724601,0.0889707102753986
"1208",1262,"Burglary","200  Markland Av","9/28/2016",200,"MARKLAND AVE","200  MARKLAND AV ",-76.1796006394283,43.0317126983362,0.729939517536,0.270060482464
"1209",1263,"Burglary","2600  E  Fayette St","9/28/2016",2600,"E FAYETTE ST","2600  E  FAYETTE ST ",-76.1082145126917,43.0484165784803,0.53361597475532,0.46638402524468
"1213",1267,"Larceny","200  Griffiths St","9/28/2016",200,"GRIFFITHS ST","200  GRIFFITHS ST ",-76.1450101707415,43.0688599851473,0.520316578120463,0.479683421879537
"1219",1273,"Robbery","200  Lynch Av","9/28/2016",200,"LYNCH AVE","200  LYNCH AV ",-76.1653446454312,43.0147246660601,0.829093749481577,0.170906250518423
"1228",1282,"Burglary","200  Sackett St","9/27/2016",200,"SACKETT ST","200  SACKETT ST ",-76.1763280285521,43.0511832674985,0.911029289724601,0.0889707102753986
"1229",1283,"Burglary","400  Herkimer St","9/27/2016",400,"HERKIMER ST","400  HERKIMER ST ",-76.1926997342893,43.0530971608462,0.615328564627682,0.384671435372318
"1247",1304,"Burglary","100  Coykendall Av","9/26/2016",100,"COYKENDALL AVE","100  COYKENDALL AV ",-76.1967495988075,43.057129281281,0.911029289724601,0.0889707102753986
"1248",1305,"Burglary","200  Kenwood Av","9/26/2016",200,"KENWOOD AVE","200  KENWOOD AV ",-76.1505266796018,43.0790426398236,0.541387989987059,0.458612010012941
"1256",1314,"Robbery","200  Beattie St","9/26/2016",200,"BEATTIE ST","200  BEATTIE ST ",-76.1084283198529,43.0507398001899,0.509988216567503,0.490011783432497
"1258",1316,"Aggravated assault","200  Hubbell Av","9/25/2016",200,"HUBBELL AVE","200  HUBBELL AV ",-76.1705539597229,43.031561449436,0.629202605330538,0.370797394669462
"1259",1317,"Aggravated assault","200  Shuart Av","9/25/2016",200,"SHUART AVE","200  SHUART AV ",-76.1282953049846,43.0602531815344,0.565850905726529,0.434149094273471
"1270",1329,"Aggravated assault","100  Ballantyne Rd","9/24/2016",100,"BALLANTYNE RD","100  BALLANTYNE RD ",-76.1421660170882,43.0107095503917,0.505925085049764,0.494074914950236
"1271",1330,"Aggravated assault","800  S  West St","9/24/2016",800,"S WEST ST","800  S  WEST ST ",-76.1576633182199,43.0425643021017,0.556549285882873,0.443450714117127
"1277",1336,"Larceny","1000  Oak St","9/24/2016",1000,"OAK ST","1000  OAK ST ",-76.1362435702939,43.0656112969401,0.520642729725048,0.479357270274952
"1279",1338,"Larceny","600  Bear St","9/24/2016",600,"BEAR ST","600  BEAR ST ",-76.1595252256123,43.0720485692995,0.537886725381712,0.462113274618288
"1283",1342,"Burglary","1800  E  Fayette St","9/23/2016",1800,"E FAYETTE ST","1800  E  FAYETTE ST ",-76.1190887626382,43.0482641294941,0.53361597475532,0.46638402524468
"1284",1343,"Burglary","1900  E  Fayette St","9/23/2016",1900,"E FAYETTE ST","1900  E  FAYETTE ST ",-76.1171132739707,43.0482442617361,0.53361597475532,0.46638402524468
"1291",1350,"Larceny","1800  E  Fayette St","9/23/2016",1800,"E FAYETTE ST","1800  E  FAYETTE ST ",-76.1190887626382,43.0482641294941,0.53361597475532,0.46638402524468
"1293",1352,"Larceny","400  Rich St","9/23/2016",400,"RICH ST","400  RICH ST ",-76.1611767384847,43.0317601683602,0.588991463297945,0.411008536702055
"1298",1358,"Aggravated assault","100  Roney Ln","9/22/2016",100,"RONEY LN","100  RONEY LN ",-76.1359419249577,43.0219167309359,0.691764466426029,0.308235533573971
"1318",1378,"Robbery","100  Roney Ln","9/21/2016",100,"RONEY LN","100  RONEY LN ",-76.1359419249577,43.0219167309359,0.691764466426029,0.308235533573971
"1326",1386,"Larceny","100  Avery Av","9/20/2016",100,"AVERY AVE","100  AVERY AV ",-76.189550386886,43.0450371983707,0.543358546339359,0.456641453660641
"1329",1389,"Larceny","200  Hubbell Av","9/20/2016",200,"HUBBELL AVE","200  HUBBELL AV ",-76.1705539597229,43.031561449436,0.629202605330538,0.370797394669462
"1330",1390,"Larceny","2000  E  Fayette St","9/20/2016",2000,"E FAYETTE ST","2000  E  FAYETTE ST ",-76.114768464016,43.0482178893287,0.53361597475532,0.46638402524468
"1332",1392,"Larceny","300  Merritt Av","9/20/2016",300,"MERRITT AVE","300  MERRITT AV ",-76.1573816547955,42.9989403937602,0.514577195252913,0.485422804747087
"1338",1398,"Larceny","700  Hickory St","9/20/2016",700,"HICKORY ST","700  HICKORY ST ",-76.1444037492439,43.0566056093948,0.554735717550385,0.445264282449615
"1341",1401,"Aggravated assault","100  Fenton St","9/19/2016",100,"FENTON ST","100  FENTON ST ",-76.1731915928605,43.0393227591009,0.911029289724601,0.0889707102753986
"1343",1404,"Burglary","100  Peck Av","9/19/2016",100,"PECK AVE","100  PECK AV ",-76.1188404841777,43.0669051045722,0.535290591418113,0.464709408581887
"1344",1405,"Burglary","200  Beecher St","9/19/2016",200,"BEECHER ST","200  BEECHER ST ",-76.1413132077457,43.0603905376466,0.670097551838331,0.329902448161669
"1345",1406,"Burglary","200  Hall Av","9/19/2016",200,"HALL AVE","200  HALL AV ",-76.1418865370099,43.0124724460418,0.71470038757324,0.28529961242676
"1346",1407,"Burglary","200  Harding St","9/19/2016",200,"HARDING ST","200  HARDING ST ",-76.1398917247517,43.079169214792,0.911029289724601,0.0889707102753986
"1347",1408,"Burglary","200  W  Borden Av","9/19/2016",200,"W BORDEN AVE","200  W  BORDEN AV ",-76.1484479497167,43.0273621512108,0.723481838212732,0.276518161787268
"1349",1410,"Burglary","600  Rowland St","9/19/2016",600,"ROWLAND ST","600  ROWLAND ST ",-76.1796275379646,43.0356829680144,0.592337526286832,0.407662473713168
"1350",1411,"Larceny","100  Bennington Dr","9/19/2016",100,"BENNINGTON DR","100  BENNINGTON DR ",-76.141980323873,43.0118668601063,0.558313140215979,0.441686859784021
"1357",1418,"Larceny","100  Windsor Pl","9/19/2016",100,"WINDSOR PL","100  WINDSOR PL ",-76.1252195470119,43.0322343313732,0.911029289724601,0.0889707102753986
"1365",1428,"Aggravated assault","1000  Northway St","9/18/2016",1000,"NORTHWAY ST","1000  NORTHWAY ST ",-76.0906984341058,43.0529181919797,0.911029289724601,0.0889707102753986
"1368",1431,"Burglary","200  Pharis St","9/18/2016",200,"PHARIS ST","200  PHARIS ST ",-76.1907577983592,43.0556638754518,0.911029289724601,0.0889707102753986
"1375",1438,"Larceny","500  Tallman St","9/18/2016",500,"TALLMAN ST","500  TALLMAN ST ",-76.155878101975,43.0363437080828,0.546039824776026,0.453960175223974
"1382",1446,"Aggravated assault","1900  E  Fayette St","9/17/2016",1900,"E FAYETTE ST","1900  E  FAYETTE ST ",-76.1171132739707,43.0482442617361,0.53361597475532,0.46638402524468
"1407",1472,"Larceny","100  Hillcrest Rd","9/16/2016",100,"HILLCREST RD","100  HILLCREST RD ",-76.1077269878803,43.0332889742023,0.911029289724601,0.0889707102753986
"1409",1475,"Larceny","400  Beattie St","9/16/2016",400,"BEATTIE ST","400  BEATTIE ST ",-76.1082145126917,43.0484165784803,0.509988216567503,0.490011783432497
"1410",1476,"Larceny","400  Lexington Av","9/16/2016",400,"LEXINGTON AVE","400  LEXINGTON AV ",-76.1170337438196,43.0471978394275,0.709019534321117,0.290980465678883
"1412",1478,"Larceny","500  Garfield Av","9/16/2016",500,"GARFIELD AVE","500  GARFIELD AV ",-76.1413422443482,43.0261758907158,0.529267505620304,0.470732494379696
"1418",1484,"Burglary","300  Loma Av","9/15/2016",300,"LOMA AVE","300  LOMA AV ",-76.1459808358595,43.0803477127664,0.651490131814787,0.348509868185213
"1420",1486,"Larceny","1400  E  Fayette St","9/15/2016",1400,"E FAYETTE ST","1400  E  FAYETTE ST ",-76.1276742234189,43.0483724386338,0.53361597475532,0.46638402524468
"1432",1498,"Burglary","200  Lambreth Ln","9/14/2016",200,"LAMBRETH LN","200  LAMBRETH LN ",-76.1186804026418,43.0198663241158,0.767615868793711,0.232384131206289
"1440",1506,"Larceny","100  Roney Ln","9/14/2016",100,"RONEY LN","100  RONEY LN ",-76.1359419249577,43.0219167309359,0.691764466426029,0.308235533573971
"1441",1507,"Larceny","100  Roney Ln","9/14/2016",100,"RONEY LN","100  RONEY LN ",-76.1359419249577,43.0219167309359,0.691764466426029,0.308235533573971
"1443",1509,"Larceny","300  Apple St","9/14/2016",300,"APPLE ST","300  APPLE ST ",-76.1763280285521,43.0511832674985,0.592789956255338,0.407210043744662
"1447",1513,"Robbery","400  Hixson Av","9/14/2016",400,"HIXSON AVE","400  HIXSON AV ",-76.1200993559624,43.0628249169997,0.721272154998655,0.278727845001345
"1448",1514,"Vehicle theft","200  Westmoreland Av","9/14/2016",200,"WESTMORELAND AVE","200  WESTMORELAND AV ",-76.1149694180707,43.0504189446029,0.733046442237987,0.266953557762013
"1449",1515,"Aggravated assault","700  Teall Av","9/13/2016",700,"TEALL AVE","700  TEALL AV ",-76.122119290319,43.0568399021865,0.532885384240931,0.467114615759069
"1450",1516,"Burglary","100  Blaine St","9/13/2016",100,"BLAINE ST","100  BLAINE ST ",-76.1523475513618,43.0332731245041,0.642699838923362,0.357300161076638
"1451",1517,"Burglary","100  Orwood Pl","9/13/2016",100,"ORWOOD PL","100  ORWOOD PL ",-76.1377123591686,43.0796956252854,0.911029289724601,0.0889707102753986
"1454",1520,"Burglary","300  Primrose Av","9/13/2016",300,"PRIMROSE AVE","300  PRIMROSE AV ",-76.1480640865731,43.0147858496745,0.636391723401872,0.363608276598128
"1461",1528,"Arson","1800  E  Fayette St","9/12/2016",1800,"E FAYETTE ST","1800  E  FAYETTE ST ",-76.1190887626382,43.0482641294941,0.53361597475532,0.46638402524468
"1467",1534,"Larceny","200  Scottholm Ter","9/12/2016",200,"SCOTTHOLM TER","200  SCOTTHOLM TER ",-76.1119715323957,43.0427883801616,0.517403755662834,0.482596244337166
"1468",1535,"Larceny","300  W  Brighton Av","9/12/2016",300,"W BRIGHTON AVE","300  W  BRIGHTON AV ",-76.1492852256358,43.0200223706288,0.568288962307457,0.431711037692543
"1469",1537,"Aggravated assault","100  W  Bissell St","9/11/2016",100,"W BISSELL ST","100  W  BISSELL ST ",-76.1588785366438,43.0257985007,0.747203977078916,0.252796022921084
"1471",1539,"Aggravated assault","300  Apple St","9/11/2016",300,"APPLE ST","300  APPLE ST ",-76.1763280285521,43.0511832674985,0.592789956255338,0.407210043744662
"1472",1540,"Aggravated assault","300  Hoefler St","9/11/2016",300,"HOEFLER ST","300  HOEFLER ST ",-76.1796275379646,43.0356829680144,0.726507095717696,0.273492904282304
"1474",1543,"Burglary","200  Lambreth Ln","9/11/2016",200,"LAMBRETH LN","200  LAMBRETH LN ",-76.1186804026418,43.0198663241158,0.767615868793711,0.232384131206289
"1483",1553,"Burglary","100  Fiscoe Av","9/10/2016",100,"FISCOE AVE","100  FISCOE AV ",-76.1438415137661,42.9928175183048,0.911029289724601,0.0889707102753986
"1485",1555,"Burglary","300  Oakwood Ave","9/10/2016",300,"OAKWOOD AVE","300  OAKWOOD AVE ",-76.1455576297912,43.0374192231689,0.557291023500547,0.442708976499453
"1487",1557,"Burglary","500  Carbon St","9/10/2016",500,"CARBON ST","500  CARBON ST ",-76.1482096592377,43.0660074654461,0.571158049073187,0.428841950926813
"1491",1561,"Larceny","100  Parkside Av","9/10/2016",100,"PARKSIDE AVE","100  PARKSIDE AV ",-76.1608533575869,43.0254146797949,0.50235126945862,0.49764873054138
"1492",1562,"Larceny","100  Victoria Pl","9/10/2016",100,"VICTORIA PL","100  VICTORIA PL ",-76.1192800864183,43.0406364103005,0.520430891525184,0.479569108474816
"1498",1568,"Aggravated assault","1000  S  Mcbride St","9/9/2016",1000,"S MCBRIDE ST","1000  S  MCBRIDE ST ",-76.144002667991,43.0416310773245,0.540845874148718,0.459154125851282
"1500",1570,"Aggravated assault","200  Furman St","9/9/2016",200,"FURMAN ST","200  FURMAN ST ",-76.148279174954,43.0318349473845,0.571268381408417,0.428731618591583
"1501",1571,"Burglary","700  Hickory St","9/9/2016",700,"HICKORY ST","700  HICKORY ST ",-76.1444037492439,43.0566056093948,0.554735717550385,0.445264282449615
"1506",1576,"Larceny","1500  E  Fayette St","9/9/2016",1500,"E FAYETTE ST","1500  E  FAYETTE ST ",-76.1255743417278,43.0483468186295,0.53361597475532,0.46638402524468
"1520",1590,"Aggravated assault","700  Hickory St","9/8/2016",700,"HICKORY ST","700  HICKORY ST ",-76.1444037492439,43.0566056093948,0.554735717550385,0.445264282449615
"1521",1591,"Arson","200  Rockland Av","9/8/2016",200,"ROCKLAND AVE","200  ROCKLAND AV ",-76.1567503446499,43.0240091370389,0.911029289724601,0.0889707102753986
"1524",1594,"Larceny","100  Markland Ave","9/8/2016",100,"MARKLAND AVE","100  MARKLAND AVE ",-76.1796632118826,43.0326793893486,0.729939517536,0.270060482464
"1531",1601,"Burglary","200  Grumbach Av","9/7/2016",200,"GRUMBACH AVE","200  GRUMBACH AV ",-76.1395941612484,43.0641461669292,0.59709094229114,0.40290905770886
"1542",1612,"Burglary","1100  Salt Springs Rd","9/6/2016",1100,"SALT SPRINGS RD","1100  SALT SPRINGS RD ",-76.0962009961283,43.0474259775715,0.552588993363276,0.447411006636724
"1544",1614,"Burglary","300  Temple St","9/6/2016",300,"TEMPLE ST","300  TEMPLE ST ",-76.1531286070404,43.040167288408,0.532762205089742,0.467237794910258
"1547",1617,"Larceny","200  Union Av","9/6/2016",200,"UNION AVE","200  UNION AV ",-76.1480736997783,43.0561991145072,0.518247844433701,0.481752155566299
"1548",1618,"Larceny","300  Cortland Av","9/6/2016",300,"CORTLAND AVE","300  CORTLAND AV ",-76.1520200273285,43.0338999087717,0.603588225973158,0.396411774026842
"1549",1619,"Larceny","300  Jamesville Ave","9/6/2016",300,"JAMESVILLE AVE","300  JAMESVILLE AVE ",-76.1354122416745,43.0241434822843,0.538451924421171,0.461548075578829
"1556",1626,"Vehicle theft","2100  E  Fayette St","9/6/2016",2100,"E FAYETTE ST","2100  E  FAYETTE ST ",-76.1137109828578,43.0482046425932,0.53361597475532,0.46638402524468
"1557",1627,"Vehicle theft","400  W  Newell St","9/6/2016",400,"W NEWELL ST","400  W  NEWELL ST ",-76.1526017888294,43.0169355304518,0.507024869645368,0.492975130354632
"1559",1629,"Aggravated assault","100  Dickerson St","9/5/2016",100,"DICKERSON ST","100  DICKERSON ST ",-76.1535353039337,43.0443774146349,0.659561811383104,0.340438188616896
"1560",1630,"Arson","200  Furman St","9/5/2016",200,"FURMAN ST","200  FURMAN ST ",-76.148279174954,43.0318349473845,0.571268381408417,0.428731618591583
"1561",1631,"Burglary","100  Victoria Pl","9/5/2016",100,"VICTORIA PL","100  VICTORIA PL ",-76.1192800864183,43.0406364103005,0.520430891525184,0.479569108474816
"1570",1640,"Aggravated assault","200  Westmoreland Av","9/4/2016",200,"WESTMORELAND AVE","200  WESTMORELAND AV ",-76.1149694180707,43.0504189446029,0.733046442237987,0.266953557762013
"1573",1643,"Burglary","200  Hillside St","9/4/2016",200,"HILLSIDE ST","200  HILLSIDE ST ",-76.1428293328615,43.0769223134751,0.608260556864096,0.391739443135904
"1574",1644,"Larceny","0  Mount Olympus Dr","9/4/2016",0,"MOUNT OLYMPUS DR","0  MOUNT OLYMPUS DR ",-76.1322278421175,43.0340900250361,0.911029289724601,0.0889707102753986
"1575",1645,"Larceny","100  Colby Av","9/4/2016",100,"COLBY AVE","100  COLBY AV ",-76.1029713619944,43.0709385209468,0.517097355880363,0.482902644119637
"1576",1646,"Larceny","100  Coolidge Av","9/4/2016",100,"COOLIDGE AVE","100  COOLIDGE AV ",-76.1637476813481,43.0354628627981,0.808263323538559,0.191736676461441
"1581",1651,"Aggravated assault","100  Ballantyne Rd","9/3/2016",100,"BALLANTYNE RD","100  BALLANTYNE RD ",-76.1421660170882,43.0107095503917,0.505925085049764,0.494074914950236
"1584",1654,"Burglary","100  Bennington Dr","9/3/2016",100,"BENNINGTON DR","100  BENNINGTON DR ",-76.141980323873,43.0118668601063,0.558313140215979,0.441686859784021
"1585",1655,"Burglary","100  Redfield Pl","9/3/2016",100,"REDFIELD PL","100  REDFIELD PL ",-76.123242609741,43.0375182337046,0.632440618704202,0.367559381295798
"1586",1656,"Burglary","300  Ontario St","9/3/2016",300,"ONTARIO ST","300  ONTARIO ST ",-76.1680871135347,43.0444007017878,0.505960863385903,0.494039136614097
"1597",1668,"Larceny","300  Riegel St","9/2/2016",300,"RIEGEL ST","300  RIEGEL ST ",-76.119295455109,43.0544174233137,0.507849427671373,0.492150572328627
"1603",1674,"Burglary","100  Blossom Rd","9/1/2016",100,"BLOSSOM RD","100  BLOSSOM RD ",-76.1056852654074,43.0443125572302,0.692526826586162,0.307473173413838
"1604",1675,"Burglary","300  Walnut Pl","9/1/2016",300,"WALNUT PL","300  WALNUT PL ",-76.1328467878434,43.0415885150503,0.60649505961708,0.39350494038292
"1621",1692,"Larceny","100  Webster Av","8/31/2016",100,"WEBSTER AVE","100  WEBSTER AV ",-76.1464053574549,43.0252378236086,0.531062738625654,0.468937261374346
"1628",1699,"Larceny","700  W  Newell St","8/31/2016",700,"W NEWELL ST","700  W  NEWELL ST ",-76.1572064159925,43.016469782082,0.507024869645368,0.492975130354632
"1629",1700,"Vehicle theft","100  Garfield Av","8/31/2016",100,"GARFIELD AVE","100  GARFIELD AV ",-76.1426645328335,43.0307818994357,0.529267505620304,0.470732494379696
"1631",1702,"Burglary","100  Hartson St","8/30/2016",100,"HARTSON ST","100  HARTSON ST ",-76.1737053719233,43.036684247544,0.512758634786599,0.487241365213401
"1632",1703,"Burglary","1800  Northcliffe Rd","8/30/2016",1800,"NORTHCLIFFE RD","1800  NORTHCLIFFE RD ",-76.0906203496983,43.0670976523481,0.911029289724601,0.0889707102753986
"1634",1705,"Larceny","100  Roney Ln","8/30/2016",100,"RONEY LN","100  RONEY LN ",-76.1359419249577,43.0219167309359,0.691764466426029,0.308235533573971
"1638",1709,"Robbery","100  W  Bissell St","8/30/2016",100,"W BISSELL ST","100  W  BISSELL ST ",-76.1588785366438,43.0257985007,0.747203977078916,0.252796022921084
"1641",1712,"Burglary","200  N  Lowell Av","8/29/2016",200,"N LOWELL AVE","200  N  LOWELL AV ",-76.1828395620584,43.0491242137779,0.732168741893687,0.267831258106313
"1644",1715,"Larceny","100  S  Beech St","8/29/2016",100,"S BEECH ST","100  S  BEECH ST ",-76.1276283313604,43.050420267505,0.502468280199766,0.497531719800234
"1655",1729,"Aggravated assault","800  E  Division St","8/28/2016",800,"E DIVISION ST","800  E  DIVISION ST ",-76.1472895563249,43.0656392686374,0.511226468159783,0.488773531840217
"1657",1731,"Burglary","100  Herkimer St","8/28/2016",100,"HERKIMER ST","100  HERKIMER ST ",-76.1886000217457,43.0546666638086,0.615328564627682,0.384671435372318
"1658",1732,"Burglary","300  Shuart Av","8/28/2016",300,"SHUART AVE","300  SHUART AV ",-76.1264293284042,43.0611673783246,0.565850905726529,0.434149094273471
"1659",1733,"Burglary","600  Catherine St","8/28/2016",600,"CATHERINE ST","600  CATHERINE ST ",-76.1444037492439,43.0566056093948,0.530462668713336,0.469537331286664
"1664",1738,"Larceny","200  Sedgwick St","8/28/2016",200,"SEDGWICK ST","200  SEDGWICK ST ",-76.1293071952654,43.0597529728646,0.650597347991168,0.349402652008832
"1678",1752,"Aggravated assault","100  Peck Av","8/27/2016",100,"PECK AVE","100  PECK AV ",-76.1188404841777,43.0669051045722,0.535290591418113,0.464709408581887
"1680",1754,"Burglary","100  Wood Av","8/27/2016",100,"WOOD AVE","100  WOOD AV ",-76.1455627801724,43.0261215642639,0.56777264668792,0.43222735331208
"1692",1766,"Burglary","400  S  Beech St","8/26/2016",400,"S BEECH ST","400  S  BEECH ST ",-76.1276972991226,43.0470068116037,0.502468280199766,0.497531719800234
"1693",1767,"Burglary","600  Carbon St","8/26/2016",600,"CARBON ST","600  CARBON ST ",-76.1506908378628,43.0670062269729,0.571158049073187,0.428841950926813
"1701",1775,"Aggravated assault","200  Apple St","8/25/2016",200,"APPLE ST","200  APPLE ST ",-76.1753886334715,43.0511603760364,0.592789956255338,0.407210043744662
"1702",1776,"Aggravated assault","200  Fitch St","8/25/2016",200,"FITCH ST","200  FITCH ST ",-76.1692198314232,43.0362349370267,0.759412972111813,0.240587027888187
"1704",1778,"Burglary","200  Burdick Av","8/25/2016",200,"BURDICK AVE","200  BURDICK AV ",-76.1540810699728,43.0767281463338,0.565537200212366,0.434462799787634
"1713",1788,"Larceny","1100  Westmoreland Av","8/25/2016",1100,"WESTMORELAND AVE","1100  WESTMORELAND AV ",-76.1136522430678,43.0326860612954,0.733046442237987,0.266953557762013
"1715",1790,"Larceny","300  Shuart Av","8/25/2016",300,"SHUART AVE","300  SHUART AV ",-76.1264293284042,43.0611673783246,0.565850905726529,0.434149094273471
"1724",1799,"Vehicle theft","100  Wood Av","8/25/2016",100,"WOOD AVE","100  WOOD AV ",-76.1455627801724,43.0261215642639,0.56777264668792,0.43222735331208
"1726",1801,"Aggravated assault","900  Carbon St","8/24/2016",900,"CARBON ST","900  CARBON ST ",-76.1572861469416,43.0696512022665,0.571158049073187,0.428841950926813
"1727",1802,"Burglary","100  W  Calthrop Av","8/24/2016",100,"W CALTHROP AVE","100  W  CALTHROP AV ",-76.1411763145872,43.0161946914482,0.605069659260615,0.394930340739385
"1728",1803,"Burglary","1000  S  Mcbride St","8/24/2016",1000,"S MCBRIDE ST","1000  S  MCBRIDE ST ",-76.144002667991,43.0416310773245,0.540845874148718,0.459154125851282
"1735",1810,"Larceny","200  Primrose Av","8/24/2016",200,"PRIMROSE AVE","200  PRIMROSE AV ",-76.1457946117148,43.0148729216847,0.636391723401872,0.363608276598128
"1741",1816,"Larceny","800  Cumberland Av","8/24/2016",800,"CUMBERLAND AVE","800  CUMBERLAND AV ",-76.1128056974955,43.0306823643492,0.587019347080845,0.412980652919155
"1745",1820,"Vehicle theft","500  Rowland St","8/24/2016",500,"ROWLAND ST","500  ROWLAND ST ",-76.178434203606,43.0357405930047,0.592337526286832,0.407662473713168
"1747",1822,"Burglary","100  Berger Av","8/23/2016",100,"BERGER AVE","100  BERGER AV ",-76.1542013673688,43.0167736164995,0.738795676402721,0.261204323597279
"1748",1823,"Burglary","100  Rockland Av","8/23/2016",100,"ROCKLAND AVE","100  ROCKLAND AV ",-76.1555354804561,43.02403187031,0.911029289724601,0.0889707102753986
"1750",1825,"Burglary","200  Chinook Dr","8/23/2016",200,"CHINOOK DR","200  CHINOOK DR ",-76.1228469520192,43.0189433696478,0.911029289724601,0.0889707102753986
"1772",1847,"Aggravated assault","500  Lynch Av","8/22/2016",500,"LYNCH AVE","500  LYNCH AV ",-76.1689672347082,43.0145405576506,0.829093749481577,0.170906250518423
"1773",1848,"Burglary","1200  Teall Av","8/22/2016",1200,"TEALL AVE","1200  TEALL AV ",-76.1225453436397,43.0627277359036,0.532885384240931,0.467114615759069
"1783",1858,"Aggravated assault","1800  Northcliffe Rd","8/21/2016",1800,"NORTHCLIFFE RD","1800  NORTHCLIFFE RD ",-76.0906203496983,43.0670976523481,0.911029289724601,0.0889707102753986
"1786",1861,"Burglary","100  Beattie St","8/21/2016",100,"BEATTIE ST","100  BEATTIE ST ",-76.1086766650647,43.052986106369,0.509988216567503,0.490011783432497
"1787",1862,"Burglary","100  Orwood Pl","8/21/2016",100,"ORWOOD PL","100  ORWOOD PL ",-76.1377123591686,43.0796956252854,0.911029289724601,0.0889707102753986
"1788",1863,"Burglary","100  Otto St","8/21/2016",100,"OTTO ST","100  OTTO ST ",-76.1402559626172,43.00551850021,0.911029289724601,0.0889707102753986
"1791",1866,"Larceny","100  Mclennan Av","8/21/2016",100,"MCLENNAN AVE","100  MCLENNAN AV ",-76.1467996987611,43.0287333080032,0.51469551624342,0.48530448375658
"1796",1871,"Larceny","500  Catherine St","8/21/2016",500,"CATHERINE ST","500  CATHERINE ST ",-76.1437795820529,43.0558205297897,0.530462668713336,0.469537331286664
"1802",1877,"Aggravated assault","600  W  Newell St","8/20/2016",600,"W NEWELL ST","600  W  NEWELL ST ",-76.1544435267864,43.0167490461297,0.507024869645368,0.492975130354632
"1804",1879,"Burglary","300  Garfield Av","8/20/2016",300,"GARFIELD AVE","300  GARFIELD AV ",-76.14214145174,43.0283359472863,0.529267505620304,0.470732494379696
"1808",1883,"Larceny","100  Wood Av","8/20/2016",100,"WOOD AVE","100  WOOD AV ",-76.1455627801724,43.0261215642639,0.56777264668792,0.43222735331208
"1815",1890,"Larceny","700  Hickory St","8/20/2016",700,"HICKORY ST","700  HICKORY ST ",-76.1444037492439,43.0566056093948,0.554735717550385,0.445264282449615
"1817",1892,"Vehicle theft","100  Wadsworth St","8/20/2016",100,"WADSWORTH ST","100  WADSWORTH ST ",-76.1388579612516,43.0692639281263,0.521072924984842,0.478927075015158
"1822",1897,"Larceny","1400  S  Mcbride St","8/19/2016",1400,"S MCBRIDE ST","1400  S  MCBRIDE ST ",-76.1437321323339,43.0375002664533,0.540845874148718,0.459154125851282
"1836",1911,"Aggravated assault","100  W  Pleasant Av","8/18/2016",100,"W PLEASANT AVE","100  W  PLEASANT AV ",-76.1413984728504,43.0172195331591,0.911029289724601,0.0889707102753986
"1849",1925,"Larceny","400  Herkimer St","8/18/2016",400,"HERKIMER ST","400  HERKIMER ST ",-76.1926997342893,43.0530971608462,0.615328564627682,0.384671435372318
"1856",1932,"Aggravated assault","500  Westmoreland Av","8/17/2016",500,"WESTMORELAND AVE","500  WESTMORELAND AV ",-76.1145227084571,43.045238420265,0.733046442237987,0.266953557762013
"1857",1933,"Burglary","100  E  Washington St","8/17/2016",100,"E WASHINGTON ST","100  E  WASHINGTON ST ",-76.1522041405805,43.0495975435855,0.545419311418735,0.454580688581265
"1867",1943,"Aggravated assault","200  Delray Av","8/16/2016",200,"DELRAY AVE","200  DELRAY AV ",-76.1002636518928,43.0498972520022,0.544790241189869,0.455209758810131
"1868",1945,"Burglary","100  Walnut Pl","8/16/2016",100,"WALNUT PL","100  WALNUT PL ",-76.1327865249514,43.044170941183,0.60649505961708,0.39350494038292
"1883",1960,"Vehicle theft","200  Fitch St","8/16/2016",200,"FITCH ST","200  FITCH ST ",-76.1692198314232,43.0362349370267,0.759412972111813,0.240587027888187
"1884",1961,"Aggravated assault","100  Lydell St","8/15/2016",100,"LYDELL ST","100  LYDELL ST ",-76.1786378406537,43.0387570808029,0.6924530512498,0.3075469487502
"1886",1963,"Burglary","100  Herkimer St","8/15/2016",100,"HERKIMER ST","100  HERKIMER ST ",-76.1886000217457,43.0546666638086,0.615328564627682,0.384671435372318
"1900",1977,"Aggravated assault","400  Woodruff Av","8/14/2016",400,"WOODRUFF AVE","400  WOODRUFF AV ",-76.1380636468221,43.0723295114772,0.565446636511444,0.434553363488556
"1902",1979,"Aggravated assault","600  Catherine St","8/14/2016",600,"CATHERINE ST","600  CATHERINE ST ",-76.1444037492439,43.0566056093948,0.530462668713336,0.469537331286664
"1904",1981,"Burglary","300  W  Kennedy St","8/14/2016",300,"W KENNEDY ST","300  W  KENNEDY ST ",-76.1528434233338,43.0293485083312,0.911029289724601,0.0889707102753986
"1907",1984,"Larceny","100  E  Washington St","8/14/2016",100,"E WASHINGTON ST","100  E  WASHINGTON ST ",-76.1522041405805,43.0495975435855,0.545419311418735,0.454580688581265
"1908",1985,"Larceny","100  Fernwood Av","8/14/2016",100,"FERNWOOD AVE","100  FERNWOOD AV ",-76.1468023484292,43.0231094045338,0.551359759688409,0.448640240311591
"1917",1996,"Burglary","900  Avery Av","8/13/2016",900,"AVERY AVE","900  AVERY AV ",-76.1955492638086,43.0535408053372,0.543358546339359,0.456641453660641
"1925",2004,"Larceny","400  E  Washington St","8/13/2016",400,"E WASHINGTON ST","400  E  WASHINGTON ST ",-76.1474000594744,43.0495111349933,0.545419311418735,0.454580688581265
"1933",2012,"Burglary","100  Coolidge Av","8/12/2016",100,"COOLIDGE AVE","100  COOLIDGE AV ",-76.1637476813481,43.0354628627981,0.808263323538559,0.191736676461441
"1934",2013,"Burglary","100  Sunrise Dr","8/12/2016",100,"SUNRISE DR","100  SUNRISE DR ",-76.1377777965545,42.9985986852015,0.911029289724601,0.0889707102753986
"1935",2014,"Burglary","100  W  Lynhurst Av","8/12/2016",100,"W LYNHURST AVE","100  W  LYNHURST AV ",-76.1411079938305,43.0152946113436,0.911029289724601,0.0889707102753986
"1936",2015,"Burglary","1800  E  Fayette St","8/12/2016",1800,"E FAYETTE ST","1800  E  FAYETTE ST ",-76.1190887626382,43.0482641294941,0.53361597475532,0.46638402524468
"1937",2016,"Burglary","500  W  Colvin St","8/12/2016",500,"W COLVIN ST","500  W  COLVIN ST ",-76.1508576268379,43.0241942093147,0.776320645225389,0.223679354774611
"1941",2021,"Larceny","200  E  Washington St","8/12/2016",200,"E WASHINGTON ST","200  E  WASHINGTON ST ",-76.1507727336364,43.0495761609668,0.545419311418735,0.454580688581265
"1948",2028,"Vehicle theft","100  S  Beech St","8/12/2016",100,"S BEECH ST","100  S  BEECH ST ",-76.1276283313604,43.050420267505,0.502468280199766,0.497531719800234
"1953",2033,"Burglary","300  Jamesville Av","8/11/2016",300,"JAMESVILLE AVE","300  JAMESVILLE AV ",-76.1354122416745,43.0241434822843,0.538451924421171,0.461548075578829
"1955",2035,"Burglary","700  Avery Av","8/11/2016",700,"AVERY AVE","700  AVERY AV ",-76.194019442006,43.0513723336755,0.543358546339359,0.456641453660641
"1956",2036,"Burglary","700  W  Colvin St","8/11/2016",700,"W COLVIN ST","700  W  COLVIN ST ",-76.1532547192696,43.023626861812,0.776320645225389,0.223679354774611
"1966",2047,"Aggravated assault","500  Seymour St","8/10/2016",500,"SEYMOUR ST","500  SEYMOUR ST ",-76.1670459327423,43.0421222638346,0.57018435748122,0.42981564251878
"1967",2049,"Arson","100  Sedgwick St","8/10/2016",100,"SEDGWICK ST","100  SEDGWICK ST ",-76.1305346487448,43.0611678291402,0.650597347991168,0.349402652008832
"1976",2059,"Aggravated assault","400  Cannon St","8/9/2016",400,"CANNON ST","400  CANNON ST ",-76.1466388794696,43.0223022439133,0.604078803917536,0.395921196082464
"1978",2062,"Burglary","100  Crouse Dr","8/9/2016",100,"CROUSE DR","100  CROUSE DR ",-76.1365895188678,43.0394142501019,0.911029289724601,0.0889707102753986
"1980",2064,"Burglary","300  Merritt Av","8/9/2016",300,"MERRITT AVE","300  MERRITT AV ",-76.1573816547955,42.9989403937602,0.514577195252913,0.485422804747087
"1982",2066,"Burglary","500  Elm St","8/9/2016",500,"ELM ST","500  ELM ST ",-76.1305312107096,43.0578958605538,0.552622107296605,0.447377892703395
"1984",2069,"Larceny","100  Danforth Ter","8/9/2016",100,"DANFORTH TER","100  DANFORTH TER ",-76.1464042015753,43.0365030003076,0.572075544780984,0.427924455219016
"1985",2070,"Larceny","100  Dickerson St","8/9/2016",100,"DICKERSON ST","100  DICKERSON ST ",-76.1535353039337,43.0443774146349,0.659561811383104,0.340438188616896
"1993",2078,"Aggravated assault","1800  E  Fayette St","8/8/2016",1800,"E FAYETTE ST","1800  E  FAYETTE ST ",-76.1190887626382,43.0482641294941,0.53361597475532,0.46638402524468
"1995",2080,"Burglary","100  Fernwood Av","8/8/2016",100,"FERNWOOD AVE","100  FERNWOOD AV ",-76.1468023484292,43.0231094045338,0.551359759688409,0.448640240311591
"2007",2093,"Aggravated assault","1900  E  Fayette St","8/7/2016",1900,"E FAYETTE ST","1900  E  FAYETTE ST ",-76.1171132739707,43.0482442617361,0.53361597475532,0.46638402524468
"2008",2094,"Aggravated assault","200  Kimber Av","8/7/2016",200,"KIMBER AVE","200  KIMBER AV ",-76.1551650029403,43.0035717276283,0.628307247856643,0.371692752143357
"2014",2101,"Burglary","900  Wadsworth St","8/7/2016",900,"WADSWORTH ST","900  WADSWORTH ST ",-76.1406053698114,43.0786093929048,0.521072924984842,0.478927075015158
"2026",2113,"Larceny","400  Griffiths St","8/7/2016",400,"GRIFFITHS ST","400  GRIFFITHS ST ",-76.1468358745303,43.0696012298556,0.520316578120463,0.479683421879537
"2035",2122,"Burglary","100  Baldwin Av","8/6/2016",100,"BALDWIN AVE","100  BALDWIN AV ",-76.155249761586,43.0166725874131,0.511885473232466,0.488114526767534
"2036",2123,"Burglary","200  Markland Av","8/6/2016",200,"MARKLAND AVE","200  MARKLAND AV ",-76.1796006394283,43.0317126983362,0.729939517536,0.270060482464
"2044",2133,"Aggravated assault","100  Roney Ln","8/5/2016",100,"RONEY LN","100  RONEY LN ",-76.1359419249577,43.0219167309359,0.691764466426029,0.308235533573971
"2046",2135,"Aggravated assault","300  Seymour St","8/5/2016",300,"SEYMOUR ST","300  SEYMOUR ST ",-76.1603902753616,43.0424384642626,0.57018435748122,0.42981564251878
"2047",2136,"Aggravated assault","400  Union Pl","8/5/2016",400,"UNION PL","400  UNION PL ",-76.1555852767039,43.0651557486864,0.74367334324902,0.25632665675098
"2048",2137,"Aggravated assault","600  Catherine St","8/5/2016",600,"CATHERINE ST","600  CATHERINE ST ",-76.1444037492439,43.0566056093948,0.530462668713336,0.469537331286664
"2054",2143,"Larceny","200  Scott Av","8/5/2016",200,"SCOTT AVE","200  SCOTT AV ",-76.1096830976251,43.0417346505922,0.63203368806555,0.36796631193445
"2056",2146,"Larceny","400  Willumae Dr","8/5/2016",400,"WILLUMAE DR","400  WILLUMAE DR ",-76.1565934430163,43.0787009380571,0.56871580764648,0.43128419235352
"2066",2156,"Larceny","200  Wilson St","8/4/2016",200,"WILSON ST","200  WILSON ST ",-76.1253272242297,43.0625058178449,0.620048235088315,0.379951764911685
"2071",2162,"Vehicle theft","500  Cadillac St","8/4/2016",500,"CADILLAC ST","500  CADILLAC ST ",-76.1487803924384,43.080427660776,0.608846812432772,0.391153187567228
"2072",2163,"Aggravated assault","100  Ashdale Av","8/3/2016",100,"ASHDALE AVE","100  ASHDALE AV ",-76.1084765368222,43.0687510817492,0.523041213939884,0.476958786060116
"2077",2168,"Burglary","700  W  Brighton Av","8/3/2016",700,"W BRIGHTON AVE","700  W  BRIGHTON AV ",-76.1579515946571,43.0190797690127,0.568288962307457,0.431711037692543
"2093",2184,"Burglary","1100  Ballantyne Rd","8/2/2016",1100,"BALLANTYNE RD","1100  BALLANTYNE RD ",-76.1552069837911,43.0096068307766,0.505925085049764,0.494074914950236
"2095",2186,"Burglary","300  Mains Av","8/2/2016",300,"MAINS AVE","300  MAINS AV ",-76.1569754588725,43.0058952342812,0.596416405492197,0.403583594507803
"2098",2190,"Larceny","100  Lexington Av","8/2/2016",100,"LEXINGTON AVE","100  LEXINGTON AV ",-76.1244324779687,43.0470556718851,0.709019534321117,0.290980465678883
"2107",2199,"Robbery","100  Lexington Av","8/2/2016",100,"LEXINGTON AVE","100  LEXINGTON AV ",-76.1244324779687,43.0470556718851,0.709019534321117,0.290980465678883
"2110",2202,"Aggravated assault","100  Randall Av","8/1/2016",100,"RANDALL AVE","100  RANDALL AV ",-76.1569049536822,43.0231477921087,0.591717753763221,0.408282246236779
"2113",2205,"Burglary","600  E  Division St","8/1/2016",600,"E DIVISION ST","600  E  DIVISION ST ",-76.1502819702631,43.0616672561912,0.511226468159783,0.488773531840217
"2114",2206,"Burglary","700  Avery Av","8/1/2016",700,"AVERY AVE","700  AVERY AV ",-76.194019442006,43.0513723336755,0.543358546339359,0.456641453660641
"2119",2211,"Larceny","100  Ainsley Dr","8/1/2016",100,"AINSLEY DR","100  AINSLEY DR ",-76.1337782164788,43.0110408513458,0.58228184520329,0.41771815479671
"2125",2217,"Larceny","300  Hillside St","8/1/2016",300,"HILLSIDE ST","300  HILLSIDE ST ",-76.1421194474609,43.0774781264641,0.608260556864096,0.391739443135904
"2126",2218,"Larceny","400  Burdick Av","8/1/2016",400,"BURDICK AVE","400  BURDICK AV ",-76.1559677674429,43.0774823892059,0.565537200212366,0.434462799787634
"2134",2227,"Aggravated assault","300  Kellogg St","7/31/2016",300,"KELLOGG ST","300  KELLOGG ST ",-76.1652885606613,43.0378652645979,0.911029289724601,0.0889707102753986
"2135",2228,"Aggravated assault","500  Salt Springs Rd","7/31/2016",500,"SALT SPRINGS RD","500  SALT SPRINGS RD ",-76.1071747113675,43.0456622223055,0.552588993363276,0.447411006636724
"2139",2232,"Larceny","1500  E  Fayette St","7/31/2016",1500,"E FAYETTE ST","1500  E  FAYETTE ST ",-76.1255743417278,43.0483468186295,0.53361597475532,0.46638402524468
"2143",2236,"Larceny","400  W  Brighton Av","7/31/2016",400,"W BRIGHTON AVE","400  W  BRIGHTON AV ",-76.1509659512125,43.0198448873663,0.568288962307457,0.431711037692543
"2147",2240,"Aggravated assault","300  Sunset Av","7/30/2016",300,"SUNSET AVE","300  SUNSET AV ",-76.1604206175763,43.0654067546652,0.741642177229451,0.258357822770549
"2150",2244,"Burglary","200  Kenmore Av","7/30/2016",200,"KENMORE AVE","200  KENMORE AV ",-76.152104958176,43.0169873130226,0.509368770481118,0.490631229518882
"2153",2247,"Burglary","400  W  Ostrander Av","7/30/2016",400,"W OSTRANDER AVE","400  W  OSTRANDER AV ",-76.1479925339079,43.0139644712051,0.573320298703741,0.426679701296259
"2171",2267,"Robbery","400  Kirk Av","7/30/2016",400,"KIRK AVE","400  KIRK AV ",-76.1536467073783,43.0279955864766,0.501509394927374,0.498490605072626
"2176",2272,"Larceny","100  Steuben St","7/29/2016",100,"STEUBEN ST","100  STEUBEN ST ",-76.1519742466533,43.0653040272821,0.828948066006586,0.171051933993414
"2187",2284,"Larceny","300  Seymour St","7/28/2016",300,"SEYMOUR ST","300  SEYMOUR ST ",-76.1603902753616,43.0424384642626,0.57018435748122,0.42981564251878
"2191",2290,"Aggravated assault","200  Fillmore Av","7/27/2016",200,"FILLMORE AVE","200  FILLMORE AV ",-76.139853285852,43.0098745465669,0.622572384629759,0.377427615370241
"2196",2295,"Burglary","100  Charmouth Dr","7/27/2016",100,"CHARMOUTH DR","100  CHARMOUTH DR ",-76.1626661075938,43.0212967367573,0.806945756181379,0.193054243818621
"2198",2297,"Burglary","100  N  Wilbur Av","7/27/2016",100,"N WILBUR AVE","100  N  WILBUR AV ",-76.1801884528723,43.0485814928274,0.911029289724601,0.0889707102753986
"2228",2329,"Burglary","300  Apple St","7/25/2016",300,"APPLE ST","300  APPLE ST ",-76.1763280285521,43.0511832674985,0.592789956255338,0.407210043744662
"2231",2332,"Burglary","500  Seymour St","7/25/2016",500,"SEYMOUR ST","500  SEYMOUR ST ",-76.1670459327423,43.0421222638346,0.57018435748122,0.42981564251878
"2233",2335,"Larceny","100  Dell St","7/25/2016",100,"DELL ST","100  DELL ST ",-76.1211393666197,43.0418066653402,0.60575840762361,0.39424159237639
"2236",2338,"Larceny","400  Woodruff Av","7/25/2016",400,"WOODRUFF AVE","400  WOODRUFF AV ",-76.1380636468221,43.0723295114772,0.565446636511444,0.434553363488556
"2238",2340,"Larceny","500  Cumberland Av","7/25/2016",500,"CUMBERLAND AVE","500  CUMBERLAND AV ",-76.1127916672731,43.0371129086868,0.587019347080845,0.412980652919155
"2246",2348,"Aggravated assault","200  W  Beard Av","7/24/2016",200,"W BEARD AVE","200  W  BEARD AV ",-76.1480571080974,43.0265045777677,0.682293821263364,0.317706178736636
"2248",2350,"Burglary","100  Valley View Dr","7/24/2016",100,"VALLEY VIEW DR","100  VALLEY VIEW DR ",-76.156719439619,43.0098806333904,0.559771776678008,0.440228223321992
"2250",2352,"Burglary","800  E  Division St","7/24/2016",800,"E DIVISION ST","800  E  DIVISION ST ",-76.1472895563249,43.0656392686374,0.511226468159783,0.488773531840217
"2253",2355,"Larceny","200  Slocum Av","7/24/2016",200,"SLOCUM AVE","200  SLOCUM AV ",-76.1613253230044,43.0408024053956,0.911029289724601,0.0889707102753986
"2255",2357,"Larceny","300  Essex St","7/24/2016",300,"ESSEX ST","300  ESSEX ST ",-76.1967475061479,43.0552434705124,0.584554477855811,0.415445522144189
"2263",2365,"Aggravated assault","1100  W  Colvin St","7/23/2016",1100,"W COLVIN ST","1100  W  COLVIN ST ",-76.1569049536822,43.0231477921087,0.776320645225389,0.223679354774611
"2266",2368,"Aggravated assault","500  W  Colvin St","7/23/2016",500,"W COLVIN ST","500  W  COLVIN ST ",-76.1508576268379,43.0241942093147,0.776320645225389,0.223679354774611
"2271",2374,"Larceny","1000  S  Mcbride St","7/23/2016",1000,"S MCBRIDE ST","1000  S  MCBRIDE ST ",-76.144002667991,43.0416310773245,0.540845874148718,0.459154125851282
"2278",2381,"Aggravated assault","100  Dickerson St","7/22/2016",100,"DICKERSON ST","100  DICKERSON ST ",-76.1535353039337,43.0443774146349,0.659561811383104,0.340438188616896
"2291",2395,"Vehicle theft","100  Richmond Av","7/22/2016",100,"RICHMOND AVE","100  RICHMOND AV ",-76.1662156647587,43.0500033145899,0.680004116153643,0.319995883846357
"2292",2396,"Aggravated assault","300  Village Dr","7/21/2016",300,"VILLAGE DR","300  VILLAGE DR ",-76.1167722048167,43.0720599559677,0.569373408318938,0.430626591681062
"2294",2398,"Arson","600  E  Division St","7/21/2016",600,"E DIVISION ST","600  E  DIVISION ST ",-76.1502819702631,43.0616672561912,0.511226468159783,0.488773531840217
"2295",2399,"Burglary","100  Delong Av","7/21/2016",100,"DELONG AVE","100  DELONG AV ",-76.1503337507035,43.0699242166843,0.911029289724601,0.0889707102753986
"2296",2401,"Burglary","100  Roney Ln","7/21/2016",100,"RONEY LN","100  RONEY LN ",-76.1359419249577,43.0219167309359,0.691764466426029,0.308235533573971
"2297",2402,"Burglary","1100  Avery Av","7/21/2016",1100,"AVERY AVE","1100  AVERY AV ",-76.1977887897155,43.0567294363684,0.543358546339359,0.456641453660641
"2308",2413,"Larceny","500  W  Newell St","7/21/2016",500,"W NEWELL ST","500  W  NEWELL ST ",-76.153502461103,43.0168423088681,0.507024869645368,0.492975130354632
"2313",2418,"Aggravated assault","100  Shuart Av","7/20/2016",100,"SHUART AVE","100  SHUART AV ",-76.1293071952654,43.0597529728646,0.565850905726529,0.434149094273471
"2318",2423,"Burglary","300  W  Kennedy St","7/20/2016",300,"W KENNEDY ST","300  W  KENNEDY ST ",-76.1528434233338,43.0293485083312,0.911029289724601,0.0889707102753986
"2319",2424,"Burglary","600  Atlantic Av","7/20/2016",600,"ATLANTIC AVE","600  ATLANTIC AV ",-76.1556713000723,43.0111323838093,0.911029289724601,0.0889707102753986
"2336",2442,"Aggravated assault","300  W  Brighton Av","7/19/2016",300,"W BRIGHTON AVE","300  W  BRIGHTON AV ",-76.1492852256358,43.0200223706288,0.568288962307457,0.431711037692543
"2339",2445,"Burglary","100  Furman St","7/19/2016",100,"FURMAN ST","100  FURMAN ST ",-76.148279174954,43.0318349473845,0.571268381408417,0.428731618591583
"2340",2446,"Burglary","100  Gebhardt Av","7/19/2016",100,"GEBHARDT AVE","100  GEBHARDT AV ",-76.1524896602602,43.0607977063456,0.911029289724601,0.0889707102753986
"2344",2450,"Burglary","600  Catherine St","7/19/2016",600,"CATHERINE ST","600  CATHERINE ST ",-76.1444037492439,43.0566056093948,0.530462668713336,0.469537331286664
"2356",2462,"Burglary","100  S  Carbon St","7/18/2016",100,"S CARBON ST","100  S  CARBON ST ",-76.1433598455768,43.06397032201,0.911029289724601,0.0889707102753986
"2357",2463,"Burglary","100  Walnut Pl","7/18/2016",100,"WALNUT PL","100  WALNUT PL ",-76.1327865249514,43.044170941183,0.60649505961708,0.39350494038292
"2359",2465,"Burglary","200  Griffiths St","7/18/2016",200,"GRIFFITHS ST","200  GRIFFITHS ST ",-76.1450101707415,43.0688599851473,0.520316578120463,0.479683421879537
"2360",2466,"Burglary","200  Thayer St","7/18/2016",200,"THAYER ST","200  THAYER ST ",-76.1277799103753,43.0154869503383,0.911029289724601,0.0889707102753986
"2362",2468,"Burglary","400  Brattle Rd","7/18/2016",400,"BRATTLE RD","400  BRATTLE RD ",-76.128495278716,43.0683202139036,0.695810946197702,0.304189053802298
"2366",2472,"Larceny","100  Dell St","7/18/2016",100,"DELL ST","100  DELL ST ",-76.1211393666197,43.0418066653402,0.60575840762361,0.39424159237639
"2367",2473,"Larceny","100  E  Washington St","7/18/2016",100,"E WASHINGTON ST","100  E  WASHINGTON ST ",-76.1522041405805,43.0495975435855,0.545419311418735,0.454580688581265
"2369",2475,"Larceny","1100  E  Fayette St","7/18/2016",1100,"E FAYETTE ST","1100  E  FAYETTE ST ",-76.1342906663996,43.0484617349681,0.53361597475532,0.46638402524468
"2376",2482,"Robbery","400  Velasko Rd","7/18/2016",400,"VELASKO RD","400  VELASKO RD ",-76.1874229834765,43.033492641874,0.514763312196144,0.485236687803856
"2380",2486,"Aggravated assault","300  Fitch St","7/17/2016",300,"FITCH ST","300  FITCH ST ",-76.1731904874964,43.037999807752,0.759412972111813,0.240587027888187
"2389",2495,"Larceny","300  Berkeley Dr","7/17/2016",300,"BERKELEY DR","300  BERKELEY DR ",-76.1266974246306,43.0319234735666,0.911029289724601,0.0889707102753986
"2396",2502,"Burglary","100  Wood Av","7/16/2016",100,"WOOD AVE","100  WOOD AV ",-76.1455627801724,43.0261215642639,0.56777264668792,0.43222735331208
"2400",2506,"Larceny","100  Roney Ln","7/16/2016",100,"RONEY LN","100  RONEY LN ",-76.1359419249577,43.0219167309359,0.691764466426029,0.308235533573971
"2407",2513,"Burglary","200  W  Borden Av","7/15/2016",200,"W BORDEN AVE","200  W  BORDEN AV ",-76.1484479497167,43.0273621512108,0.723481838212732,0.276518161787268
"2416",2523,"Larceny","800  Tallman St","7/15/2016",800,"TALLMAN ST","800  TALLMAN ST ",-76.1601595417722,43.0360060907968,0.546039824776026,0.453960175223974
"2419",2526,"Aggravated assault","100  Josephine St","7/14/2016",100,"JOSEPHINE ST","100  JOSEPHINE ST ",-76.1458238613387,43.0604360319664,0.522812681267526,0.477187318732474
"2422",2529,"Burglary","100  Vieau Dr","7/14/2016",100,"VIEAU DR","100  VIEAU DR ",-76.1828918136524,43.0306946097092,0.911029289724601,0.0889707102753986
"2427",2534,"Larceny","1700  E  Fayette St","7/14/2016",1700,"E FAYETTE ST","1700  E  FAYETTE ST ",-76.1213731749543,43.0482913580808,0.53361597475532,0.46638402524468
"2430",2537,"Larceny","400  S  Beech St","7/14/2016",400,"S BEECH ST","400  S  BEECH ST ",-76.1276972991226,43.0470068116037,0.502468280199766,0.497531719800234
"2438",2545,"Vehicle theft","400  Smith St","7/14/2016",400,"SMITH ST","400  SMITH ST ",-76.0907646077541,43.0537520547543,0.534359493010421,0.465640506989579
"2439",2546,"Aggravated assault","100  Hartson St","7/13/2016",100,"HARTSON ST","100  HARTSON ST ",-76.1737053719233,43.036684247544,0.512758634786599,0.487241365213401
"2443",2550,"Aggravated assault","800  W  Colvin St","7/13/2016",800,"W COLVIN ST","800  W  COLVIN ST ",-76.1538248441304,43.0234899046852,0.776320645225389,0.223679354774611
"2444",2551,"Burglary","300  Wilson St","7/13/2016",300,"WILSON ST","300  WILSON ST ",-76.1248196228702,43.0619574439907,0.620048235088315,0.379951764911685
"2457",2565,"Burglary","1000  Ballantyne Rd","7/12/2016",1000,"BALLANTYNE RD","1000  BALLANTYNE RD ",-76.1542948937841,43.0097630721994,0.505925085049764,0.494074914950236
"2458",2566,"Burglary","1800  E  Fayette St","7/12/2016",1800,"E FAYETTE ST","1800  E  FAYETTE ST ",-76.1190887626382,43.0482641294941,0.53361597475532,0.46638402524468
"2465",2573,"Larceny","300  Scott Av","7/12/2016",300,"SCOTT AVE","300  SCOTT AV ",-76.1079892647472,43.0391537273447,0.63203368806555,0.36796631193445
"2473",2582,"Aggravated assault","100  Hudson St","7/11/2016",100,"HUDSON ST","100  HUDSON ST ",-76.1601595417722,43.0360060907968,0.679787408416991,0.320212591583009
"2474",2583,"Aggravated assault","500  Seymour St","7/11/2016",500,"SEYMOUR ST","500  SEYMOUR ST ",-76.1670459327423,43.0421222638346,0.57018435748122,0.42981564251878
"2481",2590,"Larceny","200  Village Dr","7/11/2016",200,"VILLAGE DR","200  VILLAGE DR ",-76.1179595191027,43.0720461962832,0.569373408318938,0.430626591681062
"2484",2593,"Larceny","600  Bear St","7/11/2016",600,"BEAR ST","600  BEAR ST ",-76.1595252256123,43.0720485692995,0.537886725381712,0.462113274618288
"2486",2595,"Robbery","100  Knaul St","7/11/2016",100,"KNAUL ST","100  KNAUL ST ",-76.1433439278147,43.0663969959583,0.569190699726909,0.430809300273091
"2487",2596,"Burglary","100  Elsner St","7/10/2016",100,"ELSNER ST","100  ELSNER ST ",-76.1379551971539,43.0684021622746,0.911029289724601,0.0889707102753986
"2490",2600,"Burglary","200  Sterling Av","7/10/2016",200,"STERLING AVE","200  STERLING AV ",-76.1600010887034,43.0318088356788,0.911029289724601,0.0889707102753986
"2500",2611,"Larceny","400  Carbon St","7/10/2016",400,"CARBON ST","400  CARBON ST ",-76.1472895563249,43.0656392686374,0.571158049073187,0.428841950926813
"2502",2613,"Vehicle theft","100  Hier Av","7/10/2016",100,"HIER AVE","100  HIER AV ",-76.1404880939884,43.0630437503861,0.505571594528791,0.494428405471209
"2504",2615,"Vehicle theft","200  Forman Av","7/10/2016",200,"FORMAN AVE","200  FORMAN AV ",-76.1399162543976,43.0494337088977,0.911029289724601,0.0889707102753986
"2505",2616,"Aggravated assault","100  Griffiths St","7/9/2016",100,"GRIFFITHS ST","100  GRIFFITHS ST ",-76.1433338769611,43.0681906788335,0.520316578120463,0.479683421879537
"2507",2618,"Aggravated assault","200  W  Corning Av","7/9/2016",200,"W CORNING AVE","200  W  CORNING AV ",-76.1459067588597,43.0184225321866,0.505798957184412,0.494201042815588
"2512",2623,"Larceny","100  Ballantyne Rd","7/9/2016",100,"BALLANTYNE RD","100  BALLANTYNE RD ",-76.1421660170882,43.0107095503917,0.505925085049764,0.494074914950236
"2513",2624,"Larceny","100  Lexington Av","7/9/2016",100,"LEXINGTON AVE","100  LEXINGTON AV ",-76.1244324779687,43.0470556718851,0.709019534321117,0.290980465678883
"2520",2632,"Robbery","300  Knaul St","7/9/2016",300,"KNAUL ST","300  KNAUL ST ",-76.1407321663929,43.0665393365501,0.569190699726909,0.430809300273091
"2521",2634,"Aggravated assault","100  E  Colvin St","7/8/2016",100,"E COLVIN ST","100  E  COLVIN ST ",-76.1452890552487,43.0255316141495,0.532501374462535,0.467498625537465
"2522",2635,"Aggravated assault","100  Weiser Ct","7/8/2016",100,"WEISER CT","100  WEISER CT ",-76.1448583310959,43.0427453530301,0.588623609984441,0.411376390015559
"2536",2650,"Vehicle theft","300  E  Genesee Pkwy","7/8/2016",300,"E GENESEE PKWY","300  E  GENESEE PKWY ",-76.0902538541616,43.0427261226307,0.911029289724601,0.0889707102753986
"2538",2652,"Aggravated assault","300  Hudson St","7/7/2016",300,"HUDSON ST","300  HUDSON ST ",-76.1600010887034,43.0318088356788,0.679787408416991,0.320212591583009
"2553",2668,"Aggravated assault","100  Oberst St","7/6/2016",100,"OBERST ST","100  OBERST ST ",-76.1448676281207,43.0631901751405,0.911029289724601,0.0889707102753986
"2555",2670,"Burglary","100  Benedict Av","7/6/2016",100,"BENEDICT AVE","100  BENEDICT AV ",-76.1381994153516,43.0262119466263,0.911029289724601,0.0889707102753986
"2558",2673,"Larceny","100  Fordham Rd","7/6/2016",100,"FORDHAM RD","100  FORDHAM RD ",-76.1230972836612,43.0713785419978,0.911029289724601,0.0889707102753986
"2561",2676,"Larceny","1000  Oak St","7/6/2016",1000,"OAK ST","1000  OAK ST ",-76.1362435702939,43.0656112969401,0.520642729725048,0.479357270274952
"2562",2677,"Larceny","1000  Oak St","7/6/2016",1000,"OAK ST","1000  OAK ST ",-76.1362435702939,43.0656112969401,0.520642729725048,0.479357270274952
"2568",2683,"Burglary","100  Barnes Av","7/5/2016",100,"BARNES AVE","100  BARNES AV ",-76.1605571481193,43.0124473789028,0.911029289724601,0.0889707102753986
"2569",2684,"Burglary","100  Beard Pl","7/5/2016",100,"BEARD PL","100  BEARD PL ",-76.1450439847572,43.0272572592805,0.911029289724601,0.0889707102753986
"2570",2685,"Burglary","100  E  Washington St","7/5/2016",100,"E WASHINGTON ST","100  E  WASHINGTON ST ",-76.1522041405805,43.0495975435855,0.545419311418735,0.454580688581265
"2587",2704,"Aggravated assault","100  Mcallister Av","7/4/2016",100,"MCALLISTER AVE","100  MCALLISTER AV ",-76.1437477178151,43.0222961687418,0.515332647992199,0.484667352007801
"2597",2714,"Larceny","1300  Northcliffe Rd","7/4/2016",1300,"NORTHCLIFFE RD","1300  NORTHCLIFFE RD ",-76.0987678074408,43.0672490890025,0.911029289724601,0.0889707102753986
"2610",2728,"Burglary","800  Avery Av","7/3/2016",800,"AVERY AVE","800  AVERY AV ",-76.1947325666238,43.0523743137387,0.543358546339359,0.456641453660641
"2611",2729,"Larceny","100  Harding St","7/3/2016",100,"HARDING ST","100  HARDING ST ",-76.1380642691623,43.0778737957398,0.911029289724601,0.0889707102753986
"2617",2735,"Vehicle theft","200  Columbus Av","7/3/2016",200,"COLUMBUS AVE","200  COLUMBUS AV ",-76.1213731749543,43.0482913580808,0.85835410425398,0.14164589574602
"2622",2740,"Larceny","300  E  Division St","7/2/2016",300,"E DIVISION ST","300  E  DIVISION ST ",-76.1531172152779,43.0605184759536,0.511226468159783,0.488773531840217
"2625",2743,"Aggravated assault","100  Wood Av","7/1/2016",100,"WOOD AVE","100  WOOD AV ",-76.1455627801724,43.0261215642639,0.56777264668792,0.43222735331208
"2627",2745,"Arson","300  Columbus Av","7/1/2016",300,"COLUMBUS AVE","300  COLUMBUS AV ",-76.1214067644089,43.0471166682725,0.85835410425398,0.14164589574602
"2635",2754,"Larceny","100  Hartson St","7/1/2016",100,"HARTSON ST","100  HARTSON ST ",-76.1737053719233,43.036684247544,0.512758634786599,0.487241365213401
"2641",2760,"Larceny","700  Hillside St","7/1/2016",700,"HILLSIDE ST","700  HILLSIDE ST ",-76.1384928437923,43.0802358561307,0.608260556864096,0.391739443135904
"2644",2764,"Burglary","1000  Tallman St","6/30/2016",1000,"TALLMAN ST","1000  TALLMAN ST ",-76.162687632482,43.0356249662506,0.546039824776026,0.453960175223974
"2645",2765,"Burglary","500  Arthur St","6/30/2016",500,"ARTHUR ST","500  ARTHUR ST ",-76.1770346579606,43.0327809628609,0.557556152835198,0.442443847164802
"2650",2771,"Larceny","200  E  Washington St","6/30/2016",200,"E WASHINGTON ST","200  E  WASHINGTON ST ",-76.1507727336364,43.0495761609668,0.545419311418735,0.454580688581265
"2652",2773,"Larceny","300  Hixson Av","6/30/2016",300,"HIXSON AVE","300  HIXSON AV ",-76.1201565173019,43.0635897427113,0.721272154998655,0.278727845001345
"2656",2777,"Robbery","200  Englewood Av","6/30/2016",200,"ENGLEWOOD AVE","200  ENGLEWOOD AV ",-76.1550900237897,43.0049110832683,0.531671280627192,0.468328719372808
"2657",2778,"Aggravated assault","100  Rowland St","6/29/2016",100,"ROWLAND ST","100  ROWLAND ST ",-76.1711908993719,43.0350026717754,0.592337526286832,0.407662473713168
"2658",2779,"Aggravated assault","100  Rowland St","6/29/2016",100,"ROWLAND ST","100  ROWLAND ST ",-76.1711908993719,43.0350026717754,0.592337526286832,0.407662473713168
"2659",2780,"Arson","200  May Ave","6/29/2016",200,"MAY AVE","200  MAY AVE ",-76.1605658447796,43.0217815324845,0.911029289724601,0.0889707102753986
"2664",2785,"Larceny","100  Baldwin Av","6/29/2016",100,"BALDWIN AVE","100  BALDWIN AV ",-76.155249761586,43.0166725874131,0.511885473232466,0.488114526767534
"2665",2786,"Larceny","200  Wheaton Rd","6/29/2016",200,"WHEATON RD","200  WHEATON RD ",-76.1261945267809,43.0692989953812,0.580946814446712,0.419053185553288
"2668",2789,"Larceny","400  Oak St","6/29/2016",400,"OAK ST","400  OAK ST ",-76.1334639675454,43.057778758987,0.520642729725048,0.479357270274952
"2672",2793,"Vehicle theft","600  Ballantyne Rd","6/29/2016",600,"BALLANTYNE RD","600  BALLANTYNE RD ",-76.1500831541638,43.0104383888302,0.505925085049764,0.494074914950236
"2673",2794,"Aggravated assault","100  May Av","6/28/2016",100,"MAY AVE","100  MAY AV ",-76.1605682684582,43.0231410798872,0.911029289724601,0.0889707102753986
"2675",2796,"Burglary","300  Ivy Ridge Rd","6/28/2016",300,"IVY RIDGE RD","300  IVY RIDGE RD ",-76.13478268712,43.0182248348227,0.511999755866786,0.488000244133214
"2678",2799,"Larceny","200  Graves St","6/28/2016",200,"GRAVES ST","200  GRAVES ST ",-76.14137887209,43.0612904429837,0.616834566626965,0.383165433373035
"2679",2800,"Larceny","200  Loma Av","6/28/2016",200,"LOMA AVE","200  LOMA AV ",-76.1445691912348,43.0793615881367,0.651490131814787,0.348509868185213
"2686",2807,"Burglary","200  Markland Av","6/27/2016",200,"MARKLAND AVE","200  MARKLAND AV ",-76.1796006394283,43.0317126983362,0.729939517536,0.270060482464
"2689",2810,"Larceny","100  Henry St","6/27/2016",100,"HENRY ST","100  HENRY ST ",-76.1407237642559,43.0375447129083,0.911029289724601,0.0889707102753986
"2700",2822,"Vehicle theft","200  Fitch St","6/27/2016",200,"FITCH ST","200  FITCH ST ",-76.1692198314232,43.0362349370267,0.759412972111813,0.240587027888187
"2703",2825,"Aggravated assault","200  Hubbell Av","6/26/2016",200,"HUBBELL AVE","200  HUBBELL AV ",-76.1705539597229,43.031561449436,0.629202605330538,0.370797394669462
"2704",2826,"Aggravated assault","200  W  Calthrop Av","6/26/2016",200,"W CALTHROP AVE","200  W  CALTHROP AV ",-76.1451272614013,43.0157356989055,0.605069659260615,0.394930340739385
"2707",2829,"Burglary","1000  Northway St","6/26/2016",1000,"NORTHWAY ST","1000  NORTHWAY ST ",-76.0906984341058,43.0529181919797,0.911029289724601,0.0889707102753986
"2710",2832,"Larceny","100  Oak St","6/26/2016",100,"OAK ST","100  OAK ST ",-76.1330589168687,43.05238067231,0.520642729725048,0.479357270274952
"2711",2833,"Larceny","100  Whitwell Dr","6/26/2016",100,"WHITWELL DR","100  WHITWELL DR ",-76.1373144204083,43.0631849892942,0.911029289724601,0.0889707102753986
"2716",2839,"Aggravated assault","100  E  Colvin St","6/25/2016",100,"E COLVIN ST","100  E  COLVIN ST ",-76.1452890552487,43.0255316141495,0.532501374462535,0.467498625537465
"2731",2854,"Larceny","200  Peck Av","6/25/2016",200,"PECK AVE","200  PECK AV ",-76.1217752230826,43.0684855236807,0.535290591418113,0.464709408581887
"2738",2861,"Aggravated assault","100  Dickerson St","6/24/2016",100,"DICKERSON ST","100  DICKERSON ST ",-76.1535353039337,43.0443774146349,0.659561811383104,0.340438188616896
"2739",2862,"Aggravated assault","200  E  Cheltenham Rd","6/24/2016",200,"E CHELTENHAM RD","200  E  CHELTENHAM RD ",-76.1402085877165,42.9952970820407,0.741712098117872,0.258287901882128
"2743",2866,"Burglary","1100  N  Glencove Rd","6/24/2016",1100,"N GLENCOVE RD","1100  N  GLENCOVE RD ",-76.0990190553077,43.064305376712,0.911029289724601,0.0889707102753986
"2746",2869,"Burglary","500  Seymour St","6/24/2016",500,"SEYMOUR ST","500  SEYMOUR ST ",-76.1670459327423,43.0421222638346,0.57018435748122,0.42981564251878
"2748",2871,"Burglary","700  Broad St","6/24/2016",700,"BROAD ST","700  BROAD ST ",-76.1171585909681,43.0304809930464,0.612851260024796,0.387148739975204
"2762",2885,"Burglary","500  Elm St","6/23/2016",500,"ELM ST","500  ELM ST ",-76.1305312107096,43.0578958605538,0.552622107296605,0.447377892703395
"2763",2886,"Burglary","600  N  Lowell Av","6/23/2016",600,"N LOWELL AVE","600  N  LOWELL AV ",-76.185846364041,43.0532764308154,0.732168741893687,0.267831258106313
"2773",2896,"Larceny","800  Avery Av","6/23/2016",800,"AVERY AVE","800  AVERY AV ",-76.1947325666238,43.0523743137387,0.543358546339359,0.456641453660641
"2775",2898,"Aggravated assault","200  Hier Av","6/22/2016",200,"HIER AVE","200  HIER AV ",-76.140570719773,43.0641002832629,0.505571594528791,0.494428405471209
"2778",2901,"Arson","300  Apple St","6/22/2016",300,"APPLE ST","300  APPLE ST ",-76.1763280285521,43.0511832674985,0.592789956255338,0.407210043744662
"2781",2904,"Burglary","300  Deforest Rd","6/22/2016",300,"DEFOREST RD","300  DEFOREST RD ",-76.0903350993746,43.0424082202828,0.911029289724601,0.0889707102753986
"2810",2934,"Aggravated assault","100  Benedict Av","6/20/2016",100,"BENEDICT AVE","100  BENEDICT AV ",-76.1381994153516,43.0262119466263,0.911029289724601,0.0889707102753986
"2811",2936,"Aggravated assault","1900  E  Fayette St","6/20/2016",1900,"E FAYETTE ST","1900  E  FAYETTE ST ",-76.1171132739707,43.0482442617361,0.53361597475532,0.46638402524468
"2812",2937,"Burglary","100  Oak St","6/20/2016",100,"OAK ST","100  OAK ST ",-76.1330589168687,43.05238067231,0.520642729725048,0.479357270274952
"2814",2939,"Burglary","200  S  Beech St","6/20/2016",200,"S BEECH ST","200  S  BEECH ST ",-76.1276632098876,43.049195249249,0.502468280199766,0.497531719800234
"2815",2940,"Burglary","400  Wadsworth St","6/20/2016",400,"WADSWORTH ST","400  WADSWORTH ST ",-76.1392128439416,43.0745953388848,0.521072924984842,0.478927075015158
"2818",2943,"Larceny","300  Lydell St","6/20/2016",300,"LYDELL ST","300  LYDELL ST ",-76.178434203606,43.0357405930047,0.6924530512498,0.3075469487502
"2827",2952,"Burglary","100  Ashdale Av","6/19/2016",100,"ASHDALE AVE","100  ASHDALE AV ",-76.1084765368222,43.0687510817492,0.523041213939884,0.476958786060116
"2838",2964,"Aggravated assault","200  Putnam St","6/18/2016",200,"PUTNAM ST","200  PUTNAM ST ",-76.1697771993639,43.0354271635192,0.602552747988488,0.397447252011512
"2849",2975,"Robbery","300  Rowland St","6/18/2016",300,"ROWLAND ST","300  ROWLAND ST ",-76.1739907509502,43.035954712137,0.592337526286832,0.407662473713168
"2856",2982,"Burglary","100  Danforth Ter","6/17/2016",100,"DANFORTH TER","100  DANFORTH TER ",-76.1464042015753,43.0365030003076,0.572075544780984,0.427924455219016
"2863",2991,"Larceny","200  W  Matson Av","6/17/2016",200,"W MATSON AVE","200  W  MATSON AV ",-76.141744237902,43.0133537711439,0.59183673505225,0.40816326494775
"2872",3000,"Burglary","500  Columbus Av","6/16/2016",500,"COLUMBUS AVE","500  COLUMBUS AV ",-76.1208110393131,43.0439661322428,0.85835410425398,0.14164589574602
"2874",3002,"Larceny","100  Kirk Av","6/16/2016",100,"KIRK AVE","100  KIRK AV ",-76.1472262589523,43.029630120777,0.501509394927374,0.498490605072626
"2878",3006,"Larceny","200  Kimber Ave","6/16/2016",200,"KIMBER AVE","200  KIMBER AVE ",-76.1551650029403,43.0035717276283,0.628307247856643,0.371692752143357
"2887",3015,"Aggravated assault","200  W  Beard Av","6/15/2016",200,"W BEARD AVE","200  W  BEARD AV ",-76.1480571080974,43.0265045777677,0.682293821263364,0.317706178736636
"2889",3017,"Burglary","100  Bertram Pl","6/15/2016",100,"BERTRAM PL","100  BERTRAM PL ",-76.1573985940235,43.0173536831041,0.50846654543392,0.49153345456608
"2903",3031,"Aggravated assault","100  Fitch St","6/14/2016",100,"FITCH ST","100  FITCH ST ",-76.1657301229469,43.0349058973689,0.759412972111813,0.240587027888187
"2905",3033,"Burglary","200  Jamesville Av","6/14/2016",200,"JAMESVILLE AVE","200  JAMESVILLE AV ",-76.1355925739284,43.026197501719,0.538451924421171,0.461548075578829
"2906",3034,"Burglary","600  Bear St","6/14/2016",600,"BEAR ST","600  BEAR ST ",-76.1595252256123,43.0720485692995,0.537886725381712,0.462113274618288
"2918",3046,"Aggravated assault","200  W  Matson Av","6/13/2016",200,"W MATSON AVE","200  W  MATSON AV ",-76.141744237902,43.0133537711439,0.59183673505225,0.40816326494775
"2921",3049,"Burglary","100  Sheldon Av","6/13/2016",100,"SHELDON AVE","100  SHELDON AV ",-76.1451621126685,43.0105719167895,0.554270011401148,0.445729988598852
"2941",3069,"Larceny","200  Webster Av","6/12/2016",200,"WEBSTER AVE","200  WEBSTER AV ",-76.1464053574549,43.0252378236086,0.531062738625654,0.468937261374346
"2945",3073,"Aggravated assault","100  Dickerson St","6/11/2016",100,"DICKERSON ST","100  DICKERSON ST ",-76.1535353039337,43.0443774146349,0.659561811383104,0.340438188616896
"2946",3074,"Aggravated assault","100  Dickerson St","6/11/2016",100,"DICKERSON ST","100  DICKERSON ST ",-76.1535353039337,43.0443774146349,0.659561811383104,0.340438188616896
"2947",3075,"Burglary","300  W  Newell St","6/11/2016",300,"W NEWELL ST","300  W  NEWELL ST ",-76.1482793965545,43.0173712462603,0.507024869645368,0.492975130354632
"2970",3099,"Aggravated assault","100  Ballantyne Rd","6/9/2016",100,"BALLANTYNE RD","100  BALLANTYNE RD ",-76.1421660170882,43.0107095503917,0.505925085049764,0.494074914950236
"2981",3110,"Larceny","300  Arthur St","6/9/2016",300,"ARTHUR ST","300  ARTHUR ST ",-76.1771782444591,43.0348973186306,0.557556152835198,0.442443847164802
"2985",3114,"Aggravated assault","1000  S  Mcbride St","6/8/2016",1000,"S MCBRIDE ST","1000  S  MCBRIDE ST ",-76.144002667991,43.0416310773245,0.540845874148718,0.459154125851282
"2988",3117,"Burglary","100  Colby Av","6/8/2016",100,"COLBY AVE","100  COLBY AV ",-76.1029713619944,43.0709385209468,0.517097355880363,0.482902644119637
"2992",3122,"Larceny","100  Miles Av","6/8/2016",100,"MILES AVE","100  MILES AV ",-76.1163814514128,43.0356054371817,0.521910643610309,0.478089356389691
